$GPGSV,3,1,10,21,70,281,42,29,47,127,41,26,39,224,42,25,36,038,40*7B
$GPGSV,3,3,10,12,04,042,15,10,04,351,*7F
$GPGGA,191512.000,3306.6959,S,06418.0817,W,1,08,0.9,428.7,M,21.4,M,,0000*53
$GPRMC,191512.000,A,3306.6959,S,06418.0817,W,0.00,100.79,021218,,,A*69
$GPGSA,A,3,21,29,26,25,31,20,05,16,,,,,1.9,0.9,1.7*3C
$GPGGA,191514.000,3306.6959,S,06418.0817,W,1,08,0.9,428.7,M,21.4,M,,0000*55
$GPRMC,191514.000,A,3306.6959,S,06418.0817,W,0.00,100.79,021218,,,A*6F
$GPGSA,A,3,21,29,26,25,31,20,05,16,,,,,1.9,0.9,1.7*3C
$GPGGA,191516.000,3306.6959,S,06418.0817,W,1,08,0.9,428.7,M,21.4,M,,0000*57
$GPGSV,3,1,10,21,70,281,42,29,47,127,40,26,39,224,41,25,36,038,40*79
$GPGSV,3,3,10,12,04,042,22,10,04,351,*7B
$GPGGA,191517.000,3306.6959,S,06418.0817,W,1,08,0.9,428.7,M,21.4,M,,0000*56
$GPRMC,191517.000,A,3306.6959,S,06418.0817,W,0.00,100.79,021218,,,A*6C
$GPGSA,A,3,21,29,26,25,31,20,05,16,,,,,1.9,0.9,1.7*3C
$GPGGA,191519.000,3306.6959,S,06418.0817,W,1,08,0.9,428.7,M,21.4,M,,0000*58
$GPRMC,191519.000,A,3306.6959,S,06418.0817,W,0.00,100.79,021218,,,A*62
$GPGSA,A,3,21,29,26,25,31,20,05,16,,,,,1.9,0.9,1.7*3C
$GPGGA,191521.000,3306.6959,S,06418.0817,W,1,08,0.9,428.7,M,21.4,M,,0000*53
$GPGSV,3,1,10,21,70,281,42,29,47,127,39,26,39,224,41,25,36,038,38*78
$GPGSV,3,3,10,12,04,042,22,10,04,351,*7B
$GPGGA,191522.000,3306.6959,S,06418.0817,W,1,08,0.9,428.7,M,21.4,M,,0000*50
$GPRMC,191522.000,A,3306.6959,S,06418.0817,W,0.00,100.79,021218,,,A*6A
$GPGSA,A,3,21,29,26,25,31,20,05,16,,,,,1.9,0.9,1.7*3C
$GPGGA,191524.000,3306.6959,S,06418.0817,W,1,08,0.9,428.7,M,21.4,M,,0000*56
$GPRMC,191524.000,A,3306.6959,S,06418.0817,W,0.00,100.79,021218,,,A*6C
$GPGSA,A,3,21,29,26,25,31,20,05,16,,,,,1.9,0.9,1.7*3C
$GPGGA,191526.000,3306.6959,S,06418.0817,W,1,08,0.9,428.7,M,21.4,M,,0000*54
$GPGSV,3,1,10,21,70,281,38,29,47,127,32,26,39,224,36,25,36,038,35*73
$GPGSV,3,3,10,12,04,042,12,10,04,351,*78
$GPGGA,191527.000,3306.6959,S,06418.0817,W,1,08,0.9,428.7,M,21.4,M,,0000*55
$GPRMC,191527.000,A,3306.6959,S,06418.0817,W,0.00,100.79,021218,,,A*6F
$GPGSA,A,3,21,29,26,25,31,20,05,16,,,,,1.9,0.9,1.7*3C
$GPGGA,191529.000,3306.6959,S,06418.0817,W,1,08,0.9,428.7,M,21.4,M,,0000*5B
$GPRMC,191529.000,A,3306.6959,S,06418.0817,W,0.00,100.79,021218,,,A*61
$GPGSA,A,3,21,29,26,25,31,20,05,16,,,,,1.9,0.9,1.7*3C
$GPGGA,191531.000,3306.6959,S,06418.0817,W,1,08,0.9,428.7,M,21.4,M,,0000*52
$GPGSV,3,1,10,21,70,281,37,29,47,127,32,26,39,224,35,25,36,038,35*7F
$GPGSV,3,3,10,12,04,042,11,10,04,351,*7B
$GPGGA,191532.000,3306.6959,S,06418.0817,W,1,08,0.9,428.7,M,21.4,M,,0000*51
$GPRMC,191532.000,A,3306.6959,S,06418.0817,W,0.00,100.79,021218,,,A*6B
$GPGSA,A,3,21,29,26,25,31,20,05,16,,,,,1.9,0.9,1.7*3C
$GPGGA,191534.000,3306.6959,S,06418.0817,W,1,08,0.9,428.7,M,21.4,M,,0000*57
$GPRMC,191534.000,A,3306.6959,S,06418.0817,W,0.00,100.79,021218,,,A*6D
$GPGSA,A,3,21,29,26,25,31,20,05,16,,,,,1.9,0.9,1.7*3C
$GPGGA,191536.000,3306.6959,S,06418.0817,W,1,08,0.9,428.7,M,21.4,M,,0000*55
$GPGSV,3,1,10,21,70,281,37,29,47,127,32,26,39,224,35,25,36,038,34*7E
$GPGSV,3,3,10,12,04,042,14,10,04,351,*7E
$GPGGA,191537.000,3306.6959,S,06418.0817,W,1,08,0.9,428.7,M,21.4,M,,0000*54
$GPRMC,191537.000,A,3306.6959,S,06418.0817,W,0.00,100.79,021218,,,A*6E
$GPGSA,A,3,21,29,26,25,31,20,05,16,,,,,1.9,0.9,1.7*3C
$GPGGA,191539.000,3306.6960,S,06418.0818,W,1,08,0.9,428.7,M,21.4,M,,0000*5F
$GPRMC,191539.000,A,3306.6960,S,06418.0818,W,0.45,100.79,021218,,,A*64
$GPGSA,A,3,21,29,26,25,31,20,05,16,,,,,1.9,0.9,1.7*3C
$GPGGA,191541.000,3306.6963,S,06418.0820,W,1,08,0.9,428.7,M,21.4,M,,0000*58
$GPGSV,3,1,10,21,70,281,24,29,47,127,27,26,39,224,23,25,36,038,22*78
$GPGSV,3,3,10,12,04,042,04,10,04,351,*7F
$GPGGA,191542.000,3306.6962,S,06418.0822,W,1,08,0.9,428.7,M,21.4,M,,0000*58
$GPRMC,191542.000,A,3306.6962,S,06418.0822,W,0.74,100.79,021218,,,A*61
$GPGSA,A,3,21,29,26,31,20,05,16,,,,,,1.9,1.0,1.7*33
$GPGGA,191544.000,3306.6962,S,06418.0827,W,1,07,1.1,428.8,M,21.4,M,,0000*52
$GPRMC,191544.000,A,3306.6962,S,06418.0827,W,0.80,100.79,021218,,,A*69
$GPGSA,A,3,21,29,26,25,31,05,16,,,,,,2.1,1.1,1.8*33
$GPGGA,191546.000,3306.6965,S,06418.0825,W,1,07,1.1,428.8,M,21.4,M,,0000*55
$GPGSV,3,1,10,21,70,281,22,29,47,127,19,26,39,224,21,25,36,038,15*75
$GPGSV,3,3,10,20,27,004,09,10,04,351,*70
$GPGGA,191547.000,3306.6968,S,06418.0823,W,1,07,1.1,428.8,M,21.4,M,,0000*5F
$GPRMC,191547.000,A,3306.6968,S,06418.0823,W,0.84,100.79,021218,,,A*60
$GPGSA,A,3,21,29,26,31,05,16,,,,,,,2.7,1.7,2.1*3E
$GPGGA,191549.000,3306.6977,S,06418.0819,W,1,06,1.7,428.8,M,21.4,M,,0000*51
$GPRMC,191549.000,A,3306.6977,S,06418.0819,W,1.49,158.51,021218,,,A*6E
$GPGSA,A,3,21,29,26,31,05,16,,,,,,,2.7,1.7,2.1*3E
$GPGGA,191551.000,3306.6988,S,06418.0814,W,1,06,1.7,428.8,M,21.4,M,,0000*55
$GPGSV,3,1,10,21,70,281,21,29,47,127,19,26,39,224,20,31,33,289,17*7D
$GPGSV,3,3,10,25,36,038,04,10,04,351,*77
$GPGGA,191552.000,3306.6992,S,06418.0811,W,1,07,1.0,428.7,M,21.4,M,,0000*51
$GPRMC,191552.000,A,3306.6992,S,06418.0811,W,1.93,154.59,021218,,,A*64
$GPGSA,A,3,21,29,26,31,20,05,16,,,,,,1.9,1.0,1.7*33
$GPGGA,191554.000,3306.7000,S,06418.0803,W,1,07,1.0,428.8,M,21.4,M,,0000*58
$GPRMC,191554.000,A,3306.7000,S,06418.0803,W,1.55,148.64,021218,,,A*6B
$GPGSA,A,3,21,29,26,31,20,05,16,,,,,,1.9,1.0,1.7*33
$GPGGA,191556.000,3306.7006,S,06418.0793,W,1,07,1.0,428.7,M,21.4,M,,0000*55
$GPGSV,3,1,10,21,70,281,21,29,47,127,18,26,39,224,20,31,33,289,20*78
$GPGSV,3,3,10,25,36,038,04,10,04,351,*77
$GPGGA,191557.000,3306.7008,S,06418.0789,W,1,06,1.1,428.6,M,21.4,M,,0000*50
$GPRMC,191557.000,A,3306.7008,S,06418.0789,W,1.40,137.67,021218,,,A*62
$GPGSA,A,3,21,26,25,31,20,05,16,,,,,,2.2,1.0,1.9*39
$GPGGA,191559.000,3306.7012,S,06418.0778,W,1,06,1.2,428.6,M,21.4,M,,0000*58
$GPRMC,191559.000,A,3306.7012,S,06418.0778,W,1.94,132.06,021218,,,A*62
$GPGSA,A,3,21,26,31,05,16,,,,,,,,2.9,1.8,2.3*36
$GPGGA,191601.000,3306.7017,S,06418.0765,W,1,05,1.8,428.6,M,21.4,M,,0000*56
$GPGSV,3,1,10,21,70,281,20,26,39,224,20,31,33,289,22,05,15,134,17*7F
$GPGSV,3,3,10,12,04,042,,10,04,351,*7B
$GPGGA,191602.000,3306.7017,S,06418.0760,W,1,05,1.8,428.5,M,21.4,M,,0000*53
$GPRMC,191602.000,A,3306.7017,S,06418.0760,W,1.79,122.28,021218,,,A*6D
$GPGSA,A,3,21,26,25,31,05,16,,,,,,,2.4,1.2,2.1*34
$GPGGA,191604.000,3306.7019,S,06418.0747,W,1,06,1.2,428.4,M,21.4,M,,0000*56
$GPRMC,191604.000,A,3306.7019,S,06418.0747,W,2.08,116.63,021218,,,A*6D
$GPGSA,A,3,21,26,25,31,05,16,,,,,,,2.4,1.2,2.1*34
$GPGGA,191606.000,3306.7026,S,06418.0737,W,1,06,1.2,428.3,M,21.4,M,,0000*58
$GPGSV,3,1,10,21,70,281,21,26,39,224,20,25,36,038,17,31,33,289,23*71
$GPGSV,3,3,10,29,47,127,13,10,04,351,*74
$GPGGA,191607.000,3306.7027,S,06418.0731,W,1,06,1.2,428.3,M,21.4,M,,0000*5E
$GPRMC,191607.000,A,3306.7027,S,06418.0731,W,1.78,114.74,021218,,,A*62
$GPGSA,A,3,21,26,25,31,05,16,,,,,,,2.4,1.2,2.1*34
$GPGGA,191609.000,3306.7031,S,06418.0719,W,1,07,1.1,428.3,M,21.4,M,,0000*5F
$GPRMC,191609.000,A,3306.7031,S,06418.0719,W,1.90,112.81,021218,,,A*6B
$GPGSA,A,3,21,29,26,25,31,05,16,,,,,,2.1,1.1,1.8*33
$GPGGA,191611.000,3306.7032,S,06418.0706,W,1,07,1.1,428.3,M,21.4,M,,0000*5B
$GPGSV,3,1,10,21,70,281,22,29,47,127,19,26,39,224,21,25,36,038,18*78
$GPGSV,3,3,10,12,04,042,,10,04,351,*7B
$GPGGA,191612.000,3306.7030,S,06418.0700,W,1,07,1.1,428.2,M,21.4,M,,0000*5D
$GPRMC,191612.000,A,3306.7030,S,06418.0700,W,1.93,98.33,021218,,,A*51
$GPGSA,A,3,21,29,26,25,31,05,16,,,,,,2.1,1.1,1.8*33
$GPGGA,191614.000,3306.7027,S,06418.0683,W,1,07,1.1,428.2,M,21.4,M,,0000*57
$GPRMC,191614.000,A,3306.7027,S,06418.0683,W,2.62,88.04,021218,,,A*53
$GPGSA,A,3,21,29,26,25,31,05,16,,,,,,2.1,1.1,1.8*33
$GPGGA,191616.000,3306.7022,S,06418.0665,W,1,07,1.1,428.2,M,21.4,M,,0000*58
$GPGSV,3,1,10,21,70,281,22,29,47,127,18,26,39,224,21,25,36,038,18*79
$GPGSV,3,3,10,12,04,042,,10,04,351,*7B
$GPGGA,191617.000,3306.7019,S,06418.0655,W,1,07,1.1,428.1,M,21.4,M,,0000*51
$GPRMC,191617.000,A,3306.7019,S,06418.0655,W,2.61,79.76,021218,,,A*5E
$GPGSA,A,3,21,29,26,25,31,16,,,,,,,2.4,1.2,2.1*3A
$GPGGA,191619.000,3306.7013,S,06418.0634,W,1,05,1.3,428.2,M,21.4,M,,0000*51
$GPRMC,191619.000,A,3306.7013,S,06418.0634,W,3.02,77.18,021218,,,A*5F
$GPGSA,A,3,21,29,25,31,05,16,,,,,,,2.3,1.2,1.9*37
$GPGGA,191621.000,3306.7013,S,06418.0620,W,1,06,1.2,428.1,M,21.4,M,,0000*5E
$GPGSV,3,1,10,21,70,281,22,29,47,127,17,25,36,038,12,31,33,289,21*77
$GPGSV,3,3,10,20,27,004,,10,04,351,*79
$GPGGA,191622.000,3306.7014,S,06418.0616,W,1,07,1.1,428.1,M,21.4,M,,0000*5D
$GPRMC,191622.000,A,3306.7014,S,06418.0616,W,1.68,80.60,021218,,,A*59
$GPGSA,A,3,21,29,26,25,31,05,16,,,,,,2.1,1.1,1.8*33
$GPGGA,191624.000,3306.7013,S,06418.0606,W,1,07,1.1,428.0,M,21.4,M,,0000*5C
$GPRMC,191624.000,A,3306.7013,S,06418.0606,W,1.22,82.65,021218,,,A*50
$GPGSA,A,3,21,29,26,25,31,05,16,,,,,,2.1,1.1,1.8*33
$GPGGA,191626.000,3306.7019,S,06418.0604,W,1,07,1.1,428.0,M,21.4,M,,0000*56
$GPGSV,3,1,10,21,70,281,22,29,47,127,18,26,39,224,20,25,36,038,16*76
$GPGSV,3,3,10,20,27,004,12,10,04,351,*7A
$GPGGA,191627.000,3306.7019,S,06418.0602,W,1,07,1.1,427.9,M,21.4,M,,0000*57
$GPRMC,191627.000,A,3306.7019,S,06418.0602,W,0.83,82.65,021218,,,A*57
$GPGSA,A,3,21,29,26,25,31,20,05,16,,,,,1.9,0.9,1.7*3C
$GPGGA,191629.000,3306.7026,S,06418.0594,W,1,08,0.9,428.0,M,21.4,M,,0000*59
$GPRMC,191629.000,A,3306.7026,S,06418.0594,W,1.54,97.36,021218,,,A*50
$GPGSA,A,3,21,29,26,25,31,20,05,16,,,,,1.9,0.9,1.7*3C
$GPGGA,191631.000,3306.7034,S,06418.0584,W,1,08,0.9,427.9,M,21.4,M,,0000*54
$GPGSV,3,1,10,21,70,281,22,29,47,127,18,26,39,224,26,25,36,038,18*7E
$GPGSV,3,3,10,12,04,042,12,10,04,351,*78
$GPGGA,191632.000,3306.7038,S,06418.0578,W,1,08,0.9,428.0,M,21.4,M,,0000*5E
$GPRMC,191632.000,A,3306.7038,S,06418.0578,W,1.97,111.57,021218,,,A*60
$GPGSA,A,3,21,29,26,25,31,20,05,16,,,,,1.9,0.9,1.7*3C
$GPGGA,191634.000,3306.7042,S,06418.0562,W,1,08,0.9,427.9,M,21.4,M,,0000*58
$GPRMC,191634.000,A,3306.7042,S,06418.0562,W,2.18,104.01,021218,,,A*63
$GPGSA,A,3,21,29,25,31,20,05,16,,,,,,2.0,1.0,1.7*3A
$GPGGA,191636.000,3306.7049,S,06418.0536,W,1,07,1.0,428.1,M,21.4,M,,0000*50
$GPGSV,3,1,10,21,70,281,22,29,47,127,22,25,36,038,20,31,33,289,23*72
$GPGSV,3,3,10,12,04,042,,10,04,351,*7B
$GPGGA,191637.000,3306.7052,S,06418.0530,W,1,08,0.9,428.0,M,21.4,M,,0000*5B
$GPRMC,191637.000,A,3306.7052,S,06418.0530,W,2.17,103.17,021218,,,A*69
$GPGSA,A,3,21,29,26,25,31,20,05,16,,,,,1.9,0.9,1.7*3C
$GPGGA,191639.000,3306.7060,S,06418.0517,W,1,08,0.9,428.0,M,21.4,M,,0000*51
$GPRMC,191639.000,A,3306.7060,S,06418.0517,W,2.30,108.72,021218,,,A*6E
$GPGSA,A,3,21,29,26,25,20,05,16,,,,,,2.0,1.0,1.7*3C
$GPGGA,191641.000,3306.7065,S,06418.0508,W,1,07,1.0,427.9,M,21.4,M,,0000*54
$GPGSV,3,1,10,21,70,281,22,29,47,127,20,26,39,224,22,25,36,038,17*7E
$GPGSV,3,3,10,31,33,289,,10,04,351,*7B
$GPGGA,191642.000,3306.7067,S,06418.0503,W,1,07,1.0,428.0,M,21.4,M,,0000*58
$GPRMC,191642.000,A,3306.7067,S,06418.0503,W,1.78,106.63,021218,,,A*61
$GPGSA,A,3,21,29,26,25,31,20,05,16,,,,,1.9,0.9,1.7*3C
$GPGGA,191644.000,3306.7073,S,06418.0490,W,1,08,0.9,428.0,M,21.4,M,,0000*57
$GPRMC,191644.000,A,3306.7073,S,06418.0490,W,2.21,108.09,021218,,,A*64
$GPGSA,A,3,21,29,26,25,20,05,16,,,,,,2.0,1.0,1.7*3C
$GPGGA,191646.000,3306.7078,S,06418.0474,W,1,08,0.9,427.9,M,21.4,M,,0000*52
$GPGSV,3,1,10,21,70,281,22,29,47,127,19,26,39,224,21,25,36,038,16*76
$GPGSV,3,3,10,12,04,042,,10,04,351,*7B
$GPGGA,191647.000,3306.7079,S,06418.0466,W,1,08,0.9,428.0,M,21.4,M,,0000*57
$GPRMC,191647.000,A,3306.7079,S,06418.0466,W,2.43,101.18,021218,,,A*69
$GPGSA,A,3,21,29,26,25,31,20,05,16,,,,,1.9,0.9,1.7*3C
$GPGGA,191649.000,3306.7080,S,06418.0449,W,1,08,0.9,427.9,M,21.4,M,,0000*54
$GPRMC,191649.000,A,3306.7080,S,06418.0449,W,2.62,95.05,021218,,,A*5F
$GPGSA,A,3,21,29,26,25,31,20,05,16,,,,,1.9,0.9,1.7*3C
$GPGGA,191651.000,3306.7086,S,06418.0436,W,1,08,0.9,427.8,M,21.4,M,,0000*52
$GPGSV,3,1,10,21,70,281,22,29,47,127,18,26,39,224,21,25,36,038,17*76
$GPGSV,3,3,10,12,04,042,14,10,04,351,*7E
$GPGGA,191652.000,3306.7090,S,06418.0431,W,1,08,0.9,427.8,M,21.4,M,,0000*51
$GPRMC,191652.000,A,3306.7090,S,06418.0431,W,2.27,102.30,021218,,,A*63
$GPGSA,A,3,21,29,26,25,31,20,05,16,,,,,1.9,0.9,1.7*3C
$GPGGA,191654.000,3306.7098,S,06418.0421,W,1,07,1.0,427.8,M,21.4,M,,0000*59
$GPRMC,191654.000,A,3306.7098,S,06418.0421,W,1.88,110.50,021218,,,A*6F
$GPGSA,A,3,21,29,26,25,31,20,05,16,,,,,1.9,0.9,1.7*3C
$GPGGA,191656.000,3306.7105,S,06418.0410,W,1,08,0.9,428.0,M,21.4,M,,0000*5C
$GPGSV,3,1,10,21,70,281,23,29,47,127,19,26,39,224,21,25,36,038,17*76
$GPGSV,3,3,10,12,04,042,18,10,04,351,*72
$GPGGA,191657.000,3306.7107,S,06418.0404,W,1,08,0.9,428.0,M,21.4,M,,0000*5A
$GPRMC,191657.000,A,3306.7107,S,06418.0404,W,2.83,116.72,021218,,,A*62
$GPGSA,A,3,21,29,26,25,31,20,05,16,,,,,1.9,0.9,1.7*3C
$GPGGA,191659.000,3306.7114,S,06418.0389,W,1,08,0.9,428.0,M,21.4,M,,0000*54
$GPRMC,191659.000,A,3306.7114,S,06418.0389,W,2.73,114.20,021218,,,A*66
$GPGSA,A,3,21,29,26,25,31,20,05,16,,,,,1.9,0.9,1.7*3C
$GPGGA,191701.000,3306.7121,S,06418.0369,W,1,08,0.9,427.9,M,21.4,M,,0000*56
$GPGSV,3,1,10,21,70,281,23,29,47,127,20,26,39,224,22,25,36,038,18*70
$GPGSV,3,3,10,12,04,042,15,10,04,351,*7F
$GPGGA,191702.000,3306.7123,S,06418.0361,W,1,08,0.9,427.9,M,21.4,M,,0000*5F
$GPRMC,191702.000,A,3306.7123,S,06418.0361,W,2.77,108.06,021218,,,A*66
$GPGSA,A,3,21,29,26,25,31,20,05,16,,,,,1.9,0.9,1.7*3C
$GPGGA,191704.000,3306.7128,S,06418.0348,W,1,08,0.9,427.8,M,21.4,M,,0000*58
$GPRMC,191704.000,A,3306.7128,S,06418.0348,W,2.47,103.14,021218,,,A*6B
$GPGSA,A,3,21,29,26,25,31,20,05,16,,,,,1.9,0.9,1.7*3C
$GPGGA,191706.000,3306.7131,S,06418.0335,W,1,07,1.0,427.9,M,21.4,M,,0000*5E
$GPGSV,3,1,10,21,70,281,24,29,47,127,20,26,39,224,22,31,33,289,20*74
$GPGSV,3,3,10,25,36,038,,10,04,351,*73
$GPGGA,191707.000,3306.7135,S,06418.0328,W,1,07,1.0,427.9,M,21.4,M,,0000*57
$GPRMC,191707.000,A,3306.7135,S,06418.0328,W,2.49,100.86,021218,,,A*64
$GPGSA,A,3,21,29,31,20,05,16,,,,,,,2.0,1.1,1.7*3C
$GPGGA,191709.000,3306.7139,S,06418.0311,W,1,06,1.1,427.8,M,21.4,M,,0000*5E
$GPRMC,191709.000,A,3306.7139,S,06418.0311,W,2.60,100.23,021218,,,A*68
$GPGSA,A,3,21,29,26,31,20,05,16,,,,,,2.0,1.0,1.7*39
$GPGGA,191711.000,3306.7145,S,06418.0297,W,1,06,1.1,427.9,M,21.4,M,,0000*52
$GPGSV,3,1,10,21,70,281,23,29,47,127,19,31,33,289,21,20,27,004,21*72
$GPGSV,3,3,10,26,39,224,22,10,04,351,*70
$GPGGA,191712.000,3306.7150,S,06418.0291,W,1,07,1.0,427.8,M,21.4,M,,0000*52
$GPRMC,191712.000,A,3306.7150,S,06418.0291,W,2.45,109.61,021218,,,A*6C
$GPGSA,A,3,21,29,26,31,20,05,16,,,,,,2.0,1.0,1.7*39
$GPGGA,191714.000,3306.7158,S,06418.0282,W,1,07,1.0,427.6,M,21.4,M,,0000*50
$GPRMC,191714.000,A,3306.7158,S,06418.0282,W,1.88,116.34,021218,,,A*6C
$GPGSA,A,3,21,29,26,31,20,05,,,,,,,2.4,1.2,2.1*3D
$GPGGA,191716.000,3306.7165,S,06418.0275,W,1,07,1.0,427.6,M,21.4,M,,0000*54
$GPGSV,3,1,10,21,70,281,24,29,47,127,20,26,39,224,23,31,33,289,21*74
$GPGSV,3,3,10,25,36,038,14,10,04,351,*76
$GPGGA,191717.000,3306.7171,S,06418.0269,W,1,07,1.0,427.7,M,21.4,M,,0000*5C
$GPRMC,191717.000,A,3306.7171,S,06418.0269,W,2.22,126.30,021218,,,A*65
$GPGSA,A,3,21,29,26,25,31,20,05,,,,,,2.3,1.0,2.1*3F
$GPGGA,191719.000,3306.7179,S,06418.0263,W,1,07,1.1,427.8,M,21.4,M,,0000*5E
$GPRMC,191719.000,A,3306.7179,S,06418.0263,W,1.88,131.62,021218,,,A*6B
$GPGSA,A,3,21,29,26,31,05,16,,,,,,,2.7,1.7,2.1*3E
$GPGGA,191721.000,3306.7183,S,06418.0255,W,1,07,1.1,427.7,M,21.4,M,,0000*5A
$GPGSV,3,1,10,21,70,281,24,29,47,127,26,26,39,224,29,25,36,038,15*77
$GPGSV,3,3,10,20,27,004,07,10,04,351,*7E
$GPGGA,191722.000,3306.7186,S,06418.0250,W,1,08,0.9,427.6,M,21.4,M,,0000*5E
$GPRMC,191722.000,A,3306.7186,S,06418.0250,W,2.25,121.67,021218,,,A*63
$GPGSA,A,3,21,29,26,25,31,20,05,16,,,,,1.9,0.9,1.7*3C
$GPGGA,191724.000,3306.7190,S,06418.0238,W,1,07,1.0,427.7,M,21.4,M,,0000*57
$GPRMC,191724.000,A,3306.7190,S,06418.0238,W,2.10,112.23,021218,,,A*6A
$GPGSA,A,3,21,29,26,25,31,20,05,,,,,,2.3,1.0,2.1*3F
$GPGGA,191726.000,3306.7189,S,06418.0225,W,1,08,0.9,428.0,M,21.4,M,,0000*5E
$GPGSV,3,1,10,21,70,281,30,29,47,127,28,26,39,224,28,25,36,038,17*7F
$GPGSV,3,3,10,12,04,042,,10,04,351,*7B
$GPGGA,191727.000,3306.7191,S,06418.0218,W,1,08,0.9,427.9,M,21.4,M,,0000*5E
$GPRMC,191727.000,A,3306.7191,S,06418.0218,W,2.35,101.09,021218,,,A*67
$GPGSA,A,3,21,29,26,25,31,20,05,16,,,,,1.9,0.9,1.7*3C
$GPGGA,191729.000,3306.7195,S,06418.0206,W,1,08,0.9,428.0,M,21.4,M,,0000*5D
$GPRMC,191729.000,A,3306.7195,S,06418.0206,W,2.02,102.31,021218,,,A*6E
$GPGSA,A,3,21,29,26,25,31,20,05,16,,,,,1.9,0.9,1.7*3C
$GPGGA,191731.000,3306.7200,S,06418.0197,W,1,08,0.9,428.1,M,21.4,M,,0000*51
$GPGSV,3,1,10,21,71,277,27,29,46,126,23,26,40,225,22,25,35,037,15*71
$GPGSV,3,3,10,12,03,041,14,10,05,351,*7B
$GPGGA,191732.000,3306.7202,S,06418.0192,W,1,06,1.2,428.2,M,21.4,M,,0000*52
$GPRMC,191732.000,A,3306.7202,S,06418.0192,W,1.83,110.91,021218,,,A*64
$GPGSA,A,3,21,29,26,25,31,05,16,,,,,,2.1,1.1,1.8*33
$GPGGA,191734.000,3306.7202,S,06418.0181,W,1,08,0.9,428.1,M,21.4,M,,0000*51
$GPRMC,191734.000,A,3306.7202,S,06418.0181,W,1.71,103.35,021218,,,A*61
$GPGSA,A,3,21,29,26,25,31,20,05,16,,,,,1.9,0.9,1.7*3C
$GPGGA,191736.000,3306.7202,S,06418.0167,W,1,08,0.9,427.9,M,21.4,M,,0000*5C
$GPGSV,3,1,10,21,71,277,26,29,46,126,22,26,40,225,26,25,35,037,14*74
$GPGSV,3,3,10,10,05,351,,12,03,041,*7E
$GPGGA,191737.000,3306.7201,S,06418.0161,W,1,07,1.1,427.9,M,21.4,M,,0000*5E
$GPRMC,191737.000,A,3306.7201,S,06418.0161,W,1.75,94.70,021218,,,A*55
$GPGSA,A,3,21,29,26,25,31,20,05,16,,,,,1.9,0.9,1.7*3C
$GPGGA,191739.000,3306.7202,S,06418.0151,W,1,08,0.9,427.7,M,21.4,M,,0000*58
$GPRMC,191739.000,A,3306.7202,S,06418.0151,W,1.59,93.16,021218,,,A*52
$GPGSA,A,3,21,29,25,31,20,05,16,,,,,,2.0,1.0,1.7*3A
$GPGGA,191741.000,3306.7203,S,06418.0141,W,1,08,0.9,427.7,M,21.4,M,,0000*57
$GPGSV,3,1,10,21,71,277,26,29,46,126,19,26,40,225,11,25,35,037,12*7E
$GPGSV,3,3,10,12,03,041,14,10,05,351,*7B
$GPGGA,191742.000,3306.7203,S,06418.0135,W,1,08,0.9,427.7,M,21.4,M,,0000*57
$GPRMC,191742.000,A,3306.7203,S,06418.0135,W,1.75,92.70,021218,,,A*52
$GPGSA,A,3,21,29,26,31,20,05,16,,,,,,2.0,1.0,1.7*39
$GPGGA,191744.000,3306.7201,S,06418.0127,W,1,07,1.0,427.6,M,21.4,M,,0000*56
$GPRMC,191744.000,A,3306.7201,S,06418.0127,W,1.35,85.52,021218,,,A*57
$GPGSA,A,3,21,29,26,31,20,05,16,,,,,,2.0,1.0,1.7*39
$GPGGA,191746.000,3306.7202,S,06418.0118,W,1,07,1.0,427.3,M,21.4,M,,0000*5E
$GPGSV,3,1,10,21,71,277,26,29,46,126,20,26,40,225,12,31,32,290,22*79
$GPGSV,3,3,10,25,35,037,05,10,05,351,*7B
$GPGGA,191747.000,3306.7202,S,06418.0116,W,1,07,1.0,427.2,M,21.4,M,,0000*50
$GPRMC,191747.000,A,3306.7202,S,06418.0116,W,1.06,88.61,021218,,,A*58
$GPGSA,A,3,21,29,26,31,20,05,16,,,,,,2.0,1.0,1.7*39
$GPGGA,191749.000,3306.7201,S,06418.0109,W,1,06,1.2,427.2,M,21.4,M,,0000*50
$GPRMC,191749.000,A,3306.7201,S,06418.0109,W,1.16,89.61,021218,,,A*5B
$GPGSA,A,3,21,29,31,20,16,,,,,,,,2.4,1.3,2.0*3B
$GPGGA,191751.000,3306.7201,S,06418.0109,W,1,07,1.0,427.4,M,21.4,M,,0000*5C
$GPGSV,3,1,10,21,71,277,22,29,46,126,26,26,40,225,20,31,32,290,28*70
$GPGSV,3,3,10,25,35,037,04,10,05,351,*7A
$GPGGA,191752.000,3306.7202,S,06418.0100,W,1,08,0.9,427.5,M,21.4,M,,0000*53
$GPRMC,191752.000,A,3306.7202,S,06418.0100,W,0.21,89.61,021218,,,A*5E
$GPGSA,A,3,21,29,26,25,31,20,05,16,,,,,1.9,0.9,1.7*3C
$GPGGA,191754.000,3306.7202,S,06418.0097,W,1,08,0.9,427.5,M,21.4,M,,0000*5A
$GPRMC,191754.000,A,3306.7202,S,06418.0097,W,0.00,89.61,021218,,,A*54
$GPGSA,A,3,21,29,26,25,31,20,05,16,,,,,1.9,0.9,1.7*3C
$GPGGA,191756.000,3306.7202,S,06418.0097,W,1,08,0.9,427.5,M,21.4,M,,0000*58
$GPGSV,3,1,10,21,71,277,31,29,46,126,33,26,40,225,25,25,35,037,09*7D
$GPGSV,3,3,10,12,03,041,04,10,05,351,*7A
$GPGGA,191757.000,3306.7202,S,06418.0097,W,1,07,1.0,427.6,M,21.4,M,,0000*5D
$GPRMC,191757.000,A,3306.7202,S,06418.0097,W,0.19,89.61,021218,,,A*5F
$GPGSA,A,3,21,29,26,31,20,16,,,,,,,2.3,1.2,2.0*39
$GPGGA,191759.000,3306.7202,S,06418.0102,W,1,07,1.1,427.4,M,21.4,M,,0000*5D
$GPRMC,191759.000,A,3306.7202,S,06418.0102,W,0.48,89.61,021218,,,A*58
$GPGSA,A,3,21,29,26,31,20,16,,,,,,,2.3,1.2,2.0*39
$GPGGA,191801.000,3306.7204,S,06418.0103,W,1,05,2.0,427.0,M,21.4,M,,0000*5C
$GPGSV,3,1,10,21,71,277,24,29,46,126,25,26,40,225,23,31,32,290,16*7B
$GPGSV,3,3,10,10,05,351,,12,03,041,*7E
$GPGGA,191802.000,3306.7205,S,06418.0104,W,1,07,1.1,427.0,M,21.4,M,,0000*59
$GPRMC,191802.000,A,3306.7205,S,06418.0104,W,0.77,89.61,021218,,,A*54
$GPGSA,A,3,21,29,26,25,31,20,05,16,,,,,1.9,0.9,1.7*3C
$GPGGA,191804.000,3306.7207,S,06418.0108,W,1,08,0.9,427.0,M,21.4,M,,0000*57
$GPRMC,191804.000,A,3306.7207,S,06418.0108,W,0.56,89.61,021218,,,A*5F
$GPGSA,A,3,21,29,26,25,31,20,05,16,,,,,1.9,0.9,1.7*3C
$GPGGA,191806.000,3306.7209,S,06418.0112,W,1,08,0.9,426.8,M,21.4,M,,0000*59
$GPGSV,3,1,10,21,71,277,29,29,46,126,33,26,40,225,23,25,35,037,12*78
$GPGSV,3,3,10,12,03,041,09,10,05,351,*77
$GPGGA,191807.000,3306.7208,S,06418.0111,W,1,08,0.9,426.9,M,21.4,M,,0000*5B
$GPRMC,191807.000,A,3306.7208,S,06418.0111,W,0.00,89.61,021218,,,A*58
$GPGSA,A,3,21,29,26,25,31,20,05,16,,,,,1.9,0.9,1.7*3C
$GPGGA,191809.000,3306.7208,S,06418.0111,W,1,08,0.9,426.9,M,21.4,M,,0000*55
$GPRMC,191809.000,A,3306.7208,S,06418.0111,W,0.00,89.61,021218,,,A*56
$GPGSA,A,3,21,29,26,25,31,20,05,16,,,,,1.9,0.9,1.7*3C
$GPGGA,191811.000,3306.7208,S,06418.0111,W,1,08,0.9,426.9,M,21.4,M,,0000*5C
$GPGSV,3,1,10,21,71,277,29,29,46,126,33,26,40,225,23,25,35,037,11*7B
$GPGSV,3,3,10,12,03,041,14,10,05,351,*7B
$GPGGA,191812.000,3306.7208,S,06418.0111,W,1,08,0.9,426.9,M,21.4,M,,0000*5F
$GPRMC,191812.000,A,3306.7208,S,06418.0111,W,0.00,89.61,021218,,,A*5C
$GPGSA,A,3,21,29,26,25,31,20,05,16,,,,,1.9,0.9,1.7*3C
$GPGGA,191814.000,3306.7208,S,06418.0111,W,1,07,1.1,426.9,M,21.4,M,,0000*5F
$GPRMC,191814.000,A,3306.7208,S,06418.0111,W,0.00,89.61,021218,,,A*5A
$GPGSA,A,3,21,29,26,25,31,20,16,,,,,,2.2,1.1,1.9*36
$GPGGA,191816.000,3306.7208,S,06418.0112,W,1,07,1.1,426.8,M,21.4,M,,0000*5F
$GPGSV,3,1,10,21,71,277,30,29,46,126,33,26,40,225,24,25,35,037,11*74
$GPGSV,3,3,10,12,03,041,15,05,14,135,*7E
$GPGGA,191817.000,3306.7208,S,06418.0112,W,1,07,1.1,426.8,M,21.4,M,,0000*5E
$GPRMC,191817.000,A,3306.7208,S,06418.0112,W,0.01,89.61,021218,,,A*5B
$GPGSA,A,3,21,29,26,25,31,20,16,,,,,,2.2,1.1,1.9*36
$GPGGA,191819.000,3306.7208,S,06418.0112,W,1,07,1.1,426.8,M,21.4,M,,0000*50
$GPRMC,191819.000,A,3306.7208,S,06418.0112,W,0.00,89.61,021218,,,A*54
