$GPGSA,A,3,14,08,11,32,22,27,01,03,10,,,,2.1,1.0,1.8*33
$GPGGA,005814.000,3307.6346,S,06421.1597,W,1,09,1.0,430.9,M,21.4,M,,0000*51
$GPGSV,3,1,12,14,62,085,37,08,60,321,41,11,51,226,26,32,48,121,25*75
$GPGSV,3,3,12,10,17,123,22,31,09,049,12,18,61,203,,28,05,233,*7A
$GPGGA,005815.000,3307.6346,S,06421.1597,W,1,09,1.0,431.0,M,21.4,M,,0000*58
$GPRMC,005815.000,A,3307.6346,S,06421.1597,W,0.41,179.59,031218,,,A*6C
$GPGSA,A,3,14,08,11,32,22,27,01,03,,,,,3.2,1.2,3.0*38
$GPGGA,005817.000,3307.6343,S,06421.1595,W,1,09,1.0,431.0,M,21.4,M,,0000*5D
$GPRMC,005817.000,A,3307.6343,S,06421.1595,W,0.88,179.59,031218,,,A*6C
$GPGSA,A,3,14,08,11,32,22,27,01,03,10,,,,2.1,1.0,1.8*33
$GPGGA,005819.000,3307.6341,S,06421.1594,W,1,09,1.0,431.0,M,21.4,M,,0000*50
$GPGSV,3,1,12,14,62,085,27,08,60,321,28,11,51,226,19,32,48,121,18*79
$GPGSV,3,3,12,10,17,123,17,31,09,049,07,18,61,203,,28,05,233,*78
$GPGGA,005820.000,3307.6340,S,06421.1594,W,1,07,1.2,431.0,M,21.4,M,,0000*57
$GPRMC,005820.000,A,3307.6340,S,06421.1594,W,0.24,179.59,031218,,,A*6C
$GPGSA,A,3,14,08,22,27,01,03,10,,,,,,2.4,1.2,2.1*3F
$GPGGA,005822.000,3307.6340,S,06421.1594,W,1,07,1.2,431.1,M,21.4,M,,0000*54
$GPRMC,005822.000,A,3307.6340,S,06421.1594,W,0.15,179.59,031218,,,A*6C
$GPGSA,A,3,14,08,32,22,27,01,03,10,,,,,2.3,1.1,2.0*3B
$GPGGA,005824.000,3307.6339,S,06421.1593,W,1,09,1.0,431.2,M,21.4,M,,0000*54
$GPGSV,3,1,12,14,62,085,27,08,60,321,28,11,51,226,10,32,48,121,10*78
$GPGSV,3,3,12,10,17,123,17,31,09,049,04,18,61,203,,28,05,233,*7B
$GPGGA,005825.000,3307.6339,S,06421.1593,W,1,09,1.0,431.1,M,21.4,M,,0000*56
$GPRMC,005825.000,A,3307.6339,S,06421.1593,W,0.00,179.59,031218,,,A*66
$GPGSA,A,3,14,08,11,32,22,27,01,03,10,,,,2.1,1.0,1.8*33
$GPGGA,005827.000,3307.6339,S,06421.1593,W,1,09,1.0,431.1,M,21.4,M,,0000*54
$GPRMC,005827.000,A,3307.6339,S,06421.1593,W,0.00,179.59,031218,,,A*64
$GPGSA,A,3,14,08,11,32,22,27,01,03,10,,,,2.1,1.0,1.8*33
$GPGGA,005829.000,3307.6339,S,06421.1593,W,1,09,1.0,431.1,M,21.4,M,,0000*5A
$GPGSV,3,1,12,14,62,085,27,08,60,321,28,11,51,226,09,32,48,121,08*79
$GPGSV,3,3,12,10,17,123,11,31,09,049,04,18,61,203,,28,05,233,*7D
$GPGGA,005830.000,3307.6339,S,06421.1593,W,1,08,1.1,431.1,M,21.4,M,,0000*52
$GPRMC,005830.000,A,3307.6339,S,06421.1593,W,0.00,179.59,031218,,,A*62
$GPGSA,A,3,14,08,11,22,27,01,03,10,,,,,2.2,1.1,1.9*31
$GPGGA,005832.000,3307.6338,S,06421.1593,W,1,09,1.0,431.2,M,21.4,M,,0000*52
$GPRMC,005832.000,A,3307.6338,S,06421.1593,W,0.16,179.59,031218,,,A*66
$GPGSA,A,3,14,08,22,27,01,03,,,,,,,3.9,1.7,3.5*32
$GPGGA,005834.000,3307.6336,S,06421.1588,W,1,06,1.7,431.2,M,21.4,M,,0000*58
$GPGSV,3,1,12,14,62,085,29,08,60,321,30,22,40,267,32,27,39,001,27*7F
$GPGSV,3,3,12,31,09,049,07,32,48,121,11,18,61,203,,28,05,233,*76
$GPGGA,005835.000,3307.6333,S,06421.1586,W,1,06,1.7,431.2,M,21.4,M,,0000*52
$GPRMC,005835.000,A,3307.6333,S,06421.1586,W,0.80,179.59,031218,,,A*61
$GPGSA,A,3,14,08,22,27,01,03,,,,,,,3.9,1.7,3.5*32
$GPGGA,005837.000,3307.6330,S,06421.1585,W,1,06,1.7,431.2,M,21.4,M,,0000*50
$GPRMC,005837.000,A,3307.6330,S,06421.1585,W,0.63,179.59,031218,,,A*6E
$GPGSA,A,3,14,08,22,27,01,,,,,,,,4.6,1.8,4.3*37
$GPGGA,005839.000,3307.6325,S,06421.1585,W,1,06,1.7,431.3,M,21.4,M,,0000*5B
$GPGSV,3,1,12,14,62,085,27,08,60,321,18,22,40,267,23,27,39,001,23*7F
$GPGSV,3,3,12,18,61,203,,11,51,226,,31,09,049,,28,05,233,*7C
$GPGGA,005840.000,3307.6323,S,06421.1586,W,1,05,2.2,431.3,M,21.4,M,,0000*55
$GPRMC,005840.000,A,3307.6323,S,06421.1586,W,0.89,179.59,031218,,,A*6B
$GPGSA,A,3,14,08,22,27,03,,,,,,,,4.3,2.2,3.7*3A
$GPGGA,005842.000,3307.6314,S,06421.1582,W,1,05,2.2,431.3,M,21.4,M,,0000*57
$GPRMC,005842.000,A,3307.6314,S,06421.1582,W,1.48,35.00,031218,,,A*50
$GPGSA,A,3,14,08,22,27,03,,,,,,,,4.3,2.2,3.7*3A
$GPGGA,005844.000,3307.6305,S,06421.1579,W,1,05,2.2,431.2,M,21.4,M,,0000*54
$GPGSV,3,1,12,14,62,085,22,08,60,321,20,22,40,267,24,27,39,001,16*70
$GPGSV,3,3,12,11,51,226,,32,48,121,,10,17,123,,31,09,049,*76
$GPGGA,005845.000,3307.6303,S,06421.1577,W,1,05,2.2,431.2,M,21.4,M,,0000*5D
$GPRMC,005845.000,A,3307.6303,S,06421.1577,W,1.34,21.44,031218,,,A*55
$GPGSA,A,3,14,08,22,27,03,,,,,,,,4.3,2.2,3.7*3A
$GPGGA,005847.000,3307.6300,S,06421.1572,W,1,05,2.2,431.2,M,21.4,M,,0000*59
$GPRMC,005847.000,A,3307.6300,S,06421.1572,W,1.00,22.07,031218,,,A*52
$GPGSA,A,3,14,08,22,27,03,,,,,,,,4.3,2.2,3.7*3A
$GPGGA,005849.000,3307.6297,S,06421.1569,W,1,04,3.9,431.2,M,21.4,M,,0000*59
$GPGSV,3,1,12,14,62,085,20,08,60,321,21,22,40,267,24,03,23,279,24*72
$GPGSV,3,3,12,18,61,203,,11,51,226,,10,17,123,,31,09,049,*76
$GPGGA,005850.000,3307.6296,S,06421.1567,W,1,04,3.9,431.2,M,21.4,M,,0000*5E
$GPRMC,005850.000,A,3307.6296,S,06421.1567,W,0.81,22.07,031218,,,A*56
$GPGSA,A,3,14,08,22,03,,,,,,,,,6.0,3.9,4.6*32
$GPGGA,005852.000,3307.6290,S,06421.1562,W,1,04,3.9,431.2,M,21.4,M,,0000*5F
$GPRMC,005852.000,A,3307.6290,S,06421.1562,W,1.03,22.07,031218,,,A*5C
$GPGSA,A,2,,,,,,,,,,,,,50.0,50.0,50.0*06
$GPGGA,005854.000,3307.6293,S,06421.1562,W,1,06,1.7,431.2,M,21.4,M,,0000*54
$GPGSV,3,1,12,14,62,085,31,08,60,321,27,22,40,267,30,27,39,001,22*77
$GPGSV,3,3,12,11,51,226,,10,17,123,,31,09,049,,28,05,233,*74
$GPGGA,005855.000,3307.6300,S,06421.1570,W,1,07,1.3,431.2,M,21.4,M,,0000*58
$GPRMC,005855.000,A,3307.6300,S,06421.1570,W,0.16,22.07,031218,,,A*55
$GPGSA,A,3,14,08,32,22,27,01,03,,,,,,3.5,1.3,3.3*3D
$GPGGA,005857.000,3307.6311,S,06421.1570,W,1,08,1.2,430.9,M,21.4,M,,0000*5E
$GPRMC,005857.000,A,3307.6311,S,06421.1570,W,0.46,22.07,031218,,,A*52
$GPGSA,A,3,14,08,11,22,27,01,03,,,,,,3.7,1.6,3.3*3B
$GPGGA,005859.000,3307.6316,S,06421.1569,W,1,07,1.3,431.0,M,21.4,M,,0000*59
$GPGSV,3,1,12,14,62,085,28,08,60,321,30,32,48,121,14,22,40,267,26*7A
$GPGSV,3,3,12,18,61,203,15,10,17,123,,31,09,049,,28,05,233,*7D
$GPGGA,005900.000,3307.6316,S,06421.1567,W,1,04,3.5,430.9,M,21.4,M,,0000*55
$GPRMC,005900.000,A,3307.6316,S,06421.1567,W,0.39,22.07,031218,,,A*58
$GPGSA,A,3,14,08,22,27,03,,,,,,,,4.3,2.2,3.7*3A
$GPGGA,005902.000,3307.6317,S,06421.1566,W,1,06,1.6,431.1,M,21.4,M,,0000*5D
$GPRMC,005902.000,A,3307.6317,S,06421.1566,W,0.12,22.07,031218,,,A*53
$GPGSA,A,3,14,08,32,22,27,03,,,,,,,3.6,1.6,3.3*3A
$GPGGA,005904.000,3307.6315,S,06421.1569,W,1,06,1.6,431.3,M,21.4,M,,0000*54
$GPGSV,3,1,12,14,62,085,27,08,60,321,30,32,48,121,19,22,40,267,19*74
$GPGSV,3,3,12,18,61,203,,10,17,123,,31,09,049,,28,05,233,*79
$GPGGA,005905.000,3307.6314,S,06421.1569,W,1,06,1.6,431.3,M,21.4,M,,0000*54
$GPRMC,005905.000,A,3307.6314,S,06421.1569,W,0.80,22.07,031218,,,A*53
$GPGSA,A,3,14,08,11,32,22,27,03,,,,,,3.4,1.4,3.1*38
$GPGGA,005907.000,3307.6315,S,06421.1574,W,1,08,1.2,432.1,M,21.4,M,,0000*50
$GPRMC,005907.000,A,3307.6315,S,06421.1574,W,0.39,22.07,031218,,,A*5E
$GPGSA,A,3,14,08,11,32,22,27,01,03,,,,,3.2,1.2,3.0*38
$GPGGA,005909.000,3307.6315,S,06421.1577,W,1,08,1.2,432.6,M,21.4,M,,0000*5A
$GPGSV,3,1,12,14,62,085,28,08,60,321,32,11,51,226,21,32,48,121,24*79
$GPGSV,3,3,12,18,61,203,,10,17,123,,31,09,049,,28,05,233,*79
$GPGGA,005910.000,3307.6316,S,06421.1577,W,1,08,1.2,432.7,M,21.4,M,,0000*50
$GPRMC,005910.000,A,3307.6316,S,06421.1577,W,0.16,22.07,031218,,,A*55
$GPGSA,A,3,14,08,11,32,22,27,01,03,,,,,3.2,1.2,3.0*38
$GPGGA,005912.000,3307.6318,S,06421.1576,W,1,08,1.2,433.7,M,21.4,M,,0000*5C
$GPRMC,005912.000,A,3307.6318,S,06421.1576,W,0.16,22.07,031218,,,A*58
$GPGSA,A,3,14,08,32,22,27,01,03,,,,,,3.5,1.3,3.3*3D
$GPGGA,005914.000,3307.6315,S,06421.1579,W,1,06,1.4,434.3,M,21.4,M,,0000*53
$GPGSV,3,1,12,14,62,085,15,08,60,321,18,32,48,121,15,22,40,267,19*73
$GPGSV,3,3,12,11,51,226,05,18,61,203,,31,09,049,,28,05,233,*79
$GPGGA,005915.000,3307.6312,S,06421.1582,W,1,07,1.3,434.7,M,21.4,M,,0000*53
$GPRMC,005915.000,A,3307.6312,S,06421.1582,W,0.89,22.07,031218,,,A*58
$GPGSA,A,3,14,08,32,22,27,01,03,,,,,,3.5,1.3,3.3*3D
$GPGGA,005917.000,3307.6311,S,06421.1576,W,1,07,1.3,434.9,M,21.4,M,,0000*57
$GPRMC,005917.000,A,3307.6311,S,06421.1576,W,0.54,22.07,031218,,,A*52
$GPGSA,A,3,14,08,32,22,27,01,03,,,,,,3.5,1.3,3.3*3D
$GPGGA,005919.000,3307.6312,S,06421.1567,W,1,07,1.3,434.8,M,21.4,M,,0000*5B
$GPGSV,3,1,12,14,62,085,25,08,60,321,21,32,48,121,17,22,40,267,19*78
$GPGSV,3,3,12,18,61,203,,10,17,123,,31,09,049,,28,05,233,*79
$GPGGA,005920.000,3307.6319,S,06421.1564,W,1,06,1.6,434.9,M,21.4,M,,0000*5C
$GPRMC,005920.000,A,3307.6319,S,06421.1564,W,1.32,81.77,031218,,,A*52
$GPGSA,A,3,14,08,32,22,27,03,,,,,,,3.6,1.6,3.3*3A
$GPGGA,005922.000,3307.6327,S,06421.1564,W,1,06,1.6,434.5,M,21.4,M,,0000*5F
$GPRMC,005922.000,A,3307.6327,S,06421.1564,W,1.04,112.14,031218,,,A*66
$GPGSA,A,3,14,08,32,22,27,03,,,,,,,3.6,1.6,3.3*3A
$GPGGA,005924.000,3307.6329,S,06421.1559,W,1,06,1.6,433.6,M,21.4,M,,0000*5D
$GPGSV,3,1,12,14,62,085,25,08,60,321,21,32,48,121,17,22,40,267,18*79
$GPGSV,3,3,12,18,61,203,,10,17,123,,31,09,049,,28,05,233,*79
$GPGGA,005925.000,3307.6329,S,06421.1555,W,1,05,1.8,433.6,M,21.4,M,,0000*5D
$GPRMC,005925.000,A,3307.6329,S,06421.1555,W,1.01,113.21,031218,,,A*6F
$GPGSA,A,3,14,08,32,27,03,,,,,,,,3.9,1.8,3.5*3D
$GPGGA,005927.000,3307.6331,S,06421.1545,W,1,06,1.6,433.5,M,21.4,M,,0000*59
$GPRMC,005927.000,A,3307.6331,S,06421.1545,W,1.85,109.86,031218,,,A*6F
$GPGSA,A,3,14,08,32,22,27,03,,,,,,,3.6,1.6,3.3*3A
$GPGGA,005929.000,3307.6327,S,06421.1531,W,1,06,1.6,433.3,M,21.4,M,,0000*55
$GPGSV,3,1,12,14,62,085,25,08,60,321,21,32,48,121,16,22,40,267,11*71
$GPGSV,3,3,12,18,61,203,,10,17,123,,31,09,049,,28,05,233,*79
$GPGGA,005930.000,3307.6326,S,06421.1521,W,1,06,1.5,433.3,M,21.4,M,,0000*5E
$GPRMC,005930.000,A,3307.6326,S,06421.1521,W,2.71,92.30,031218,,,A*5B
$GPGSA,A,3,14,08,11,32,22,27,03,,,,,,3.4,1.3,3.1*3F
$GPGGA,005932.000,3307.6322,S,06421.1502,W,1,07,1.3,433.2,M,21.4,M,,0000*5F
$GPRMC,005932.000,A,3307.6322,S,06421.1502,W,2.81,88.80,031218,,,A*53
$GPGSA,A,3,14,08,32,22,27,03,,,,,,,3.6,1.5,3.3*39
$GPGGA,005934.000,3307.6324,S,06421.1486,W,1,06,1.5,433.0,M,21.4,M,,0000*57
$GPGSV,3,1,12,14,62,085,22,08,60,321,22,32,48,121,17,22,40,267,08*7C
$GPGSV,3,3,12,18,61,203,,10,17,123,,31,09,049,,28,05,233,*79
$GPGGA,005935.000,3307.6327,S,06421.1479,W,1,05,1.8,433.0,M,21.4,M,,0000*5B
$GPRMC,005935.000,A,3307.6327,S,06421.1479,W,2.50,93.57,031218,,,A*50
$GPGSA,A,3,14,08,32,22,27,03,,,,,,,3.6,1.5,3.3*39
$GPGGA,005937.000,3307.6331,S,06421.1468,W,1,06,1.5,433.0,M,21.4,M,,0000*50
$GPRMC,005937.000,A,3307.6331,S,06421.1468,W,1.91,97.63,031218,,,A*58
$GPGSA,A,3,14,08,32,22,27,03,,,,,,,3.6,1.5,3.3*39
$GPGGA,005939.000,3307.6331,S,06421.1458,W,1,06,1.5,433.1,M,21.4,M,,0000*5C
$GPGSV,3,1,12,14,62,085,22,08,60,321,21,32,48,121,17,22,40,267,12*74
$GPGSV,3,3,12,11,51,226,,10,17,123,,31,09,049,,28,05,233,*74
$GPGGA,005940.000,3307.6333,S,06421.1452,W,1,06,1.5,433.1,M,21.4,M,,0000*5A
$GPRMC,005940.000,A,3307.6333,S,06421.1452,W,1.47,99.58,031218,,,A*5E
$GPGSA,A,3,14,08,32,22,27,,,,,,,,4.9,1.6,4.6*33
$GPGGA,005942.000,3307.6344,S,06421.1441,W,1,05,1.6,433.4,M,21.4,M,,0000*5F
$GPRMC,005942.000,A,3307.6344,S,06421.1441,W,1.89,103.11,031218,,,A*63
$GPGSA,A,3,14,08,32,22,27,,,,,,,,4.9,1.6,4.6*33
$GPGGA,005944.000,3307.6348,S,06421.1431,W,1,05,1.6,433.6,M,21.4,M,,0000*50
$GPGSV,3,1,12,14,62,085,25,08,60,321,21,32,48,121,21,22,40,267,14*70
$GPGSV,3,3,12,11,51,226,,03,23,279,,31,09,049,,28,05,233,*7D
$GPGGA,005945.000,3307.6350,S,06421.1426,W,1,05,1.6,433.7,M,21.4,M,,0000*5F
$GPRMC,005945.000,A,3307.6350,S,06421.1426,W,1.87,106.80,031218,,,A*63
$GPGSA,A,3,14,08,32,22,27,,,,,,,,4.9,1.6,4.6*33
$GPGGA,005947.000,3307.6354,S,06421.1420,W,1,06,1.5,433.7,M,21.4,M,,0000*5F
$GPRMC,005947.000,A,3307.6354,S,06421.1420,W,1.22,112.40,031218,,,A*65
$GPGSA,A,3,14,08,32,22,27,10,,,,,,,2.8,1.5,2.3*35
$GPGGA,005949.000,3307.6359,S,06421.1417,W,1,06,1.5,433.6,M,21.4,M,,0000*59
$GPGSV,3,1,12,14,62,085,30,08,60,321,17,32,48,121,22,22,40,267,13*75
$GPGSV,3,3,12,11,51,226,,03,23,279,,31,09,049,,28,05,233,*7D
$GPGGA,005950.000,3307.6365,S,06421.1415,W,1,06,1.5,433.6,M,21.4,M,,0000*5C
$GPRMC,005950.000,A,3307.6365,S,06421.1415,W,1.04,112.40,031218,,,A*63
$GPGSA,A,3,14,08,32,22,27,10,,,,,,,2.7,1.5,2.3*3A
$GPGGA,005952.000,3307.6372,S,06421.1406,W,1,07,1.2,433.6,M,21.4,M,,0000*5C
$GPRMC,005952.000,A,3307.6372,S,06421.1406,W,1.57,115.11,031218,,,A*60
$GPGSA,A,3,14,08,32,22,27,01,10,,,,,,2.6,1.2,2.3*3D
$GPGGA,005954.000,3307.6377,S,06421.1390,W,1,07,1.2,433.3,M,21.4,M,,0000*52
$GPGSV,3,1,12,14,62,085,31,08,60,321,24,32,48,121,13,22,40,267,13*76
$GPGSV,3,3,12,18,61,203,,11,51,226,,31,09,049,,28,05,233,*7C
$GPGGA,005955.000,3307.6377,S,06421.1380,W,1,08,1.1,433.0,M,21.4,M,,0000*5D
$GPRMC,005955.000,A,3307.6377,S,06421.1380,W,2.23,104.91,031218,,,A*63
$GPGSA,A,3,14,08,32,22,27,01,03,10,,,,,2.2,1.1,2.0*3A
$GPGGA,005957.000,3307.6382,S,06421.1366,W,1,07,1.2,433.0,M,21.4,M,,0000*51
$GPRMC,005957.000,A,3307.6382,S,06421.1366,W,1.79,101.16,031218,,,A*65
$GPGSA,A,3,14,08,22,27,01,03,10,,,,,,2.4,1.2,2.1*3F
$GPGGA,005959.000,3307.6385,S,06421.1354,W,1,08,1.1,432.8,M,21.4,M,,0000*5C
$GPGSV,3,1,12,14,62,085,26,08,60,321,21,32,48,121,09,22,40,267,17*7A
$GPGSV,3,3,12,18,61,203,,11,51,226,,31,09,049,,28,05,233,*7C
$GPGGA,010000.000,3307.6388,S,06421.1349,W,1,08,1.1,432.8,M,21.4,M,,0000*5C
$GPRMC,010000.000,A,3307.6388,S,06421.1349,W,1.99,107.06,031218,,,A*64
$GPGSA,A,3,14,08,32,27,01,03,10,,,,,,2.3,1.1,2.0*3B
$GPGGA,010002.000,3307.6390,S,06421.1337,W,1,07,1.1,432.6,M,21.4,M,,0000*5F
$GPRMC,010002.000,A,3307.6390,S,06421.1337,W,1.68,106.72,031218,,,A*6A
$GPGSA,A,3,14,08,32,27,01,03,10,,,,,,2.3,1.1,2.0*3B
$GPGGA,010004.000,3307.6392,S,06421.1326,W,1,07,1.1,432.6,M,21.4,M,,0000*5B
$GPGSV,3,1,12,14,62,085,26,08,60,321,26,32,48,121,12,27,39,001,23*79
$GPGSV,3,3,12,18,61,203,,11,51,226,,31,09,049,,28,05,233,*7C
$GPGGA,010005.000,3307.6392,S,06421.1320,W,1,07,1.1,432.5,M,21.4,M,,0000*5F
$GPRMC,010005.000,A,3307.6392,S,06421.1320,W,1.54,106.32,031218,,,A*62
$GPGSA,A,3,14,08,32,27,01,03,10,,,,,,2.3,1.1,2.0*3B
$GPGGA,010007.000,3307.6395,S,06421.1307,W,1,06,1.4,432.5,M,21.4,M,,0000*5B
$GPRMC,010007.000,A,3307.6395,S,06421.1307,W,1.69,108.82,031218,,,A*69
$GPGSA,A,3,14,08,27,01,03,,,,,,,,4.3,1.9,3.9*3D
$GPGGA,010009.000,3307.6399,S,06421.1299,W,1,05,1.9,432.6,M,21.4,M,,0000*52
$GPGSV,3,1,12,14,62,085,26,08,60,321,19,27,39,001,23,01,34,224,09*72
$GPGSV,3,3,12,18,61,203,,11,51,226,,31,09,049,,28,05,233,*7C
$GPGGA,010010.000,3307.6402,S,06421.1298,W,1,04,2.4,432.6,M,21.4,M,,0000*51
$GPRMC,010010.000,A,3307.6402,S,06421.1298,W,1.48,123.91,031218,,,A*69
$GPGSA,A,3,14,08,27,03,,,,,,,,,4.6,2.4,3.9*37
$GPGGA,010012.000,3307.6412,S,06421.1295,W,1,04,4.6,432.8,M,21.4,M,,0000*55
$GPRMC,010012.000,A,3307.6412,S,06421.1295,W,2.05,143.73,031218,,,A*67
$GPGSA,A,3,14,08,03,10,,,,,,,,,5.5,4.6,3.1*3D
$GPGGA,010014.000,3307.6427,S,06421.1294,W,1,05,4.8,433.2,M,21.4,M,,0000*50
$GPGSV,3,1,12,14,62,085,26,08,60,321,23,32,48,121,15,03,23,279,12*79
$GPGSV,3,3,12,18,61,203,,11,51,226,,31,09,049,,28,05,233,*7C
$GPGGA,010015.000,3307.6433,S,06421.1297,W,1,05,4.8,433.4,M,21.4,M,,0000*51
$GPRMC,010015.000,A,3307.6433,S,06421.1297,W,2.60,166.66,031218,,,A*61
$GPGSA,A,3,14,08,32,03,10,,,,,,,,6.1,4.8,3.7*33
$GPGGA,010017.000,3307.6441,S,06421.1296,W,1,06,2.9,433.5,M,21.4,M,,0000*52
$GPRMC,010017.000,A,3307.6441,S,06421.1296,W,2.00,174.47,031218,,,A*61
$GPGSA,A,3,14,08,32,22,03,,,,,,,,5.6,3.2,4.6*3D
$GPGGA,010019.000,3307.6447,S,06421.1289,W,1,05,3.2,433.7,M,21.4,M,,0000*5F
$GPGSV,3,1,12,14,62,085,26,08,60,321,22,32,48,121,16,22,40,267,11*71
$GPGSV,3,3,12,18,61,203,,11,51,226,,31,09,049,,28,05,233,*7C
$GPGGA,010020.000,3307.6450,S,06421.1286,W,1,05,3.2,433.7,M,21.4,M,,0000*5C
$GPRMC,010020.000,A,3307.6450,S,06421.1286,W,1.59,170.47,031218,,,A*6F
$GPGSA,A,3,14,08,32,22,03,,,,,,,,5.6,3.2,4.6*3D
$GPGGA,010022.000,3307.6454,S,06421.1272,W,1,04,3.7,433.8,M,21.4,M,,0000*5A
$GPRMC,010022.000,A,3307.6454,S,06421.1272,W,2.14,161.23,031218,,,A*6A
$GPGSA,A,3,14,08,32,03,,,,,,,,,4.8,3.7,3.1*37
$GPGGA,010024.000,3307.6456,S,06421.1258,W,1,04,3.7,433.8,M,21.4,M,,0000*56
$GPGSV,3,1,12,14,62,085,26,08,60,321,22,32,48,121,20,03,23,279,11*7D
$GPGSV,3,3,12,18,61,203,,11,51,226,,31,09,049,,28,05,233,*7C
$GPGGA,010025.000,3307.6459,S,06421.1250,W,1,05,2.1,433.7,M,21.4,M,,0000*59
$GPRMC,010025.000,A,3307.6459,S,06421.1250,W,1.92,148.25,031218,,,A*60
$GPGSA,A,3,14,08,32,01,03,,,,,,,,4.9,2.1,4.4*32
$GPGGA,010027.000,3307.6461,S,06421.1235,W,1,05,2.1,433.8,M,21.4,M,,0000*5C
$GPRMC,010027.000,A,3307.6461,S,06421.1235,W,1.76,136.51,031218,,,A*6A
$GPGSA,A,3,14,08,32,27,01,03,,,,,,,3.8,1.4,3.5*31
$GPGGA,010029.000,3307.6459,S,06421.1221,W,1,06,1.4,433.8,M,21.4,M,,0000*59
$GPGSV,3,1,12,14,62,085,26,08,60,321,22,32,48,121,19,27,39,001,09*7E
$GPGSV,3,3,12,11,51,226,,22,40,267,,31,09,049,,28,05,233,*74
$GPGGA,010030.000,3307.6460,S,06421.1216,W,1,06,1.4,433.9,M,21.4,M,,0000*5E
$GPRMC,010030.000,A,3307.6460,S,06421.1216,W,1.67,125.47,031218,,,A*69
$GPGSA,A,3,14,08,32,27,01,03,,,,,,,3.8,1.4,3.5*31
$GPGGA,010032.000,3307.6462,S,06421.1208,W,1,06,1.4,433.8,M,21.4,M,,0000*50
$GPRMC,010032.000,A,3307.6462,S,06421.1208,W,0.88,124.43,031218,,,A*63
$GPGSA,A,3,14,08,32,27,01,03,31,,,,,,2.0,1.1,1.7*3F
$GPGGA,010034.000,3307.6459,S,06421.1194,W,1,07,1.1,433.4,M,21.4,M,,0000*50
$GPGSV,3,1,12,14,62,085,29,08,60,321,23,32,48,121,18,27,39,001,09*71
$GPGSV,3,3,12,22,40,267,04,18,61,203,,11,51,226,,28,05,233,*79
$GPGGA,010035.000,3307.6457,S,06421.1186,W,1,07,1.1,433.3,M,21.4,M,,0000*5B
$GPRMC,010035.000,A,3307.6457,S,06421.1186,W,0.95,120.85,031218,,,A*65
$GPGSA,A,3,14,08,32,22,27,01,03,,,,,,3.5,1.3,3.3*3D
$GPGGA,010037.000,3307.6451,S,06421.1172,W,1,07,1.3,433.3,M,21.4,M,,0000*56
$GPRMC,010037.000,A,3307.6451,S,06421.1172,W,1.30,112.09,031218,,,A*61
$GPGSA,A,3,14,08,32,22,27,01,03,,,,,,3.5,1.3,3.3*3D
$GPGGA,010039.000,3307.6461,S,06421.1152,W,1,07,1.3,432.8,M,21.4,M,,0000*53
$GPGSV,3,1,12,14,62,085,29,08,60,321,26,32,48,121,30,22,40,267,15*7A
$GPGSV,3,3,12,31,09,049,18,18,61,203,,11,51,226,,28,05,233,*75
$GPGGA,010040.000,3307.6463,S,06421.1146,W,1,07,1.3,432.7,M,21.4,M,,0000*55
$GPRMC,010040.000,A,3307.6463,S,06421.1146,W,1.32,106.63,031218,,,A*6C
$GPGSA,A,3,14,08,32,22,27,01,,,,,,,4.3,1.3,4.1*3A
$GPGGA,010042.000,3307.6451,S,06421.1134,W,1,06,1.3,433.1,M,21.4,M,,0000*55
$GPRMC,010042.000,A,3307.6451,S,06421.1134,W,1.56,103.90,031218,,,A*61
$GPGSA,A,3,14,08,32,22,27,01,,,,,,,4.3,1.3,4.1*3A
$GPGGA,010044.000,3307.6450,S,06421.1122,W,1,06,1.3,433.3,M,21.4,M,,0000*57
$GPGSV,3,1,12,14,62,085,25,08,60,321,21,32,48,121,27,22,40,267,14*76
$GPGSV,3,3,12,11,51,226,11,31,09,049,17,18,61,203,,28,05,233,*7A
$GPGGA,010045.000,3307.6453,S,06421.1117,W,1,06,1.3,433.3,M,21.4,M,,0000*53
$GPRMC,010045.000,A,3307.6453,S,06421.1117,W,1.92,115.60,031218,,,A*65
$GPGSA,A,3,14,08,32,22,27,,,,,,,,4.8,1.6,4.6*32
$GPGGA,010047.000,3307.6459,S,06421.1105,W,1,05,3.6,433.2,M,21.4,M,,0000*5D
$GPRMC,010047.000,A,3307.6459,S,06421.1105,W,1.68,114.61,031218,,,A*6B
$GPGSA,A,3,14,08,11,32,27,,,,,,,,5.4,1.6,5.1*39
$GPGGA,010049.000,3307.6463,S,06421.1095,W,1,04,1.9,433.2,M,21.4,M,,0000*5E
$GPGSV,3,1,12,14,62,085,19,11,51,226,10,32,48,121,13,27,39,001,17*7A
$GPGSV,3,3,12,18,61,203,,08,60,321,,31,09,049,,28,05,233,*70
$GPGGA,010050.000,3307.6465,S,06421.1091,W,1,03,20.2,433.2,M,21.4,M,,0000*6B
$GPRMC,010050.000,A,3307.6465,S,06421.1091,W,1.62,113.94,031218,,,A*69
$GPGSA,A,3,14,32,22,27,01,,,,,,,,6.3,1.6,6.1*37
$GPGGA,010052.000,3307.6467,S,06421.1075,W,1,06,1.4,433.2,M,21.4,M,,0000*51
$GPRMC,010052.000,A,3307.6467,S,06421.1075,W,2.00,111.85,031218,,,A*66
$GPGSA,A,3,14,11,32,22,27,01,,,,,,,5.2,1.4,5.0*35
$GPGGA,010054.000,3307.6470,S,06421.1062,W,1,06,1.4,433.3,M,21.4,M,,0000*56
$GPGSV,3,1,12,14,62,085,17,11,51,226,12,32,48,121,08,22,40,267,13*71
$GPGSV,3,3,12,10,17,123,13,18,61,203,,31,09,049,,28,05,233,*7B
$GPGGA,010055.000,3307.6472,S,06421.1055,W,1,05,2.2,433.3,M,21.4,M,,0000*57
$GPRMC,010055.000,A,3307.6472,S,06421.1055,W,2.13,108.20,031218,,,A*62
$GPGSA,A,3,08,11,22,27,01,,,,,,,,5.2,3.0,4.2*3C
$GPGGA,010057.000,3307.6475,S,06421.1043,W,1,06,1.7,433.3,M,21.4,M,,0000*50
$GPRMC,010057.000,A,3307.6475,S,06421.1043,W,1.91,110.66,031218,,,A*62
$GPGSA,A,3,08,11,27,01,,,,,,,,,8.4,8.0,2.7*3F
$GPGGA,010059.000,3307.6481,S,06421.1033,W,1,04,8.0,433.4,M,21.4,M,,0000*59
$GPGSV,3,1,12,08,60,321,17,11,51,226,12,27,39,001,21,01,34,224,09*77
$GPGSV,3,3,12,18,61,203,,10,17,123,,31,09,049,,28,05,233,*79
$GPGGA,010100.000,3307.6485,S,06421.1027,W,1,04,8.0,433.4,M,21.4,M,,0000*55
$GPRMC,010100.000,A,3307.6485,S,06421.1027,W,2.08,116.83,031218,,,A*62
$GPGSA,A,3,08,11,27,01,,,,,,,,,8.4,8.0,2.7*3F
$GPGGA,010102.000,3307.6487,S,06421.1020,W,1,05,1.9,433.3,M,21.4,M,,0000*54
$GPRMC,010102.000,A,3307.6487,S,06421.1020,W,1.36,116.87,031218,,,A*6F
$GPGSA,A,3,14,08,11,27,01,,,,,,,,4.4,1.9,4.0*37
$GPGGA,010104.000,3307.6486,S,06421.1013,W,1,05,1.9,433.4,M,21.4,M,,0000*54
$GPGSV,3,1,12,14,62,085,13,08,60,321,17,11,51,226,11,27,39,001,22*72
$GPGSV,3,3,12,03,23,279,,10,17,123,,31,09,049,,28,05,233,*78
$GPGGA,010105.000,3307.6490,S,06421.1010,W,1,05,2.0,433.4,M,21.4,M,,0000*5B
$GPRMC,010105.000,A,3307.6490,S,06421.1010,W,1.17,116.76,031218,,,A*60
$GPGSA,A,3,14,08,22,27,,,,,,,,,6.0,2.3,5.6*3E
$GPGGA,010107.000,3307.6498,S,06421.0999,W,1,03,3.5,433.4,M,21.4,M,,0000*5A
$GPRMC,010107.000,A,3307.6498,S,06421.0999,W,1.74,122.41,031218,,,A*65
$GPGSA,A,2,14,08,27,,,,,,,,,,4.7,3.5,3.2*3F
$GPGGA,010109.000,3307.6508,S,06421.0988,W,1,03,3.5,433.4,M,21.4,M,,0000*5C
$GPGSV,3,1,12,14,62,085,11,08,60,321,16,27,39,001,17,01,34,224,04*73
$GPGSV,3,3,12,18,61,203,,03,23,279,,31,09,049,,28,05,233,*70
$GPGGA,010110.000,3307.6514,S,06421.0983,W,1,03,3.5,433.4,M,21.4,M,,0000*52
$GPRMC,010110.000,A,3307.6514,S,06421.0983,W,2.34,128.35,031218,,,A*63
$GPGSA,A,2,14,08,27,,,,,,,,,,4.7,3.5,3.2*3F
$GPGGA,010112.000,3307.6526,S,06421.0973,W,1,03,3.5,433.4,M,21.4,M,,0000*5E
$GPRMC,010112.000,A,3307.6526,S,06421.0973,W,2.51,133.44,031218,,,A*60
$GPGSA,A,2,14,08,27,,,,,,,,,,4.7,3.5,3.2*3F
$GPGGA,010114.000,3307.6531,S,06421.0964,W,1,03,3.5,433.4,M,21.4,M,,0000*58
$GPGSV,3,1,12,14,62,088,12,08,59,323,14,27,38,001,15,01,35,224,04*75
$GPGSV,3,3,12,03,23,278,,10,16,122,,31,10,050,,28,04,234,*7F
$GPGGA,010115.000,3307.6529,S,06421.0955,W,1,03,3.5,433.4,M,21.4,M,,0000*52
$GPRMC,010115.000,A,3307.6529,S,06421.0955,W,1.64,132.80,031218,,,A*60
$GPGSA,A,2,14,08,27,,,,,,,,,,4.7,3.5,3.2*3F
$GPGGA,010117.000,3307.6529,S,06421.0945,W,1,03,3.5,433.3,M,21.4,M,,0000*56
$GPRMC,010117.000,A,3307.6529,S,06421.0945,W,1.57,129.10,031218,,,A*60
$GPGSA,A,2,14,08,27,,,,,,,,,,4.7,3.5,3.2*3F
$GPGGA,010119.000,3307.6533,S,06421.0937,W,1,03,3.5,433.3,M,21.4,M,,0000*56
$GPGSV,3,1,12,14,62,088,13,08,59,323,13,27,38,001,11,01,35,224,04*77
$GPGSV,3,3,12,18,62,202,,03,23,278,,10,16,122,,28,04,234,*74
$GPGGA,010120.000,3307.6531,S,06421.0926,W,1,03,3.5,433.3,M,21.4,M,,0000*5E
$GPRMC,010120.000,A,3307.6531,S,06421.0926,W,1.86,122.16,031218,,,A*69
$GPGSA,A,2,14,08,27,,,,,,,,,,4.7,3.5,3.2*3F
$GPGGA,010122.000,3307.6536,S,06421.0917,W,1,03,3.5,433.2,M,21.4,M,,0000*58
$GPRMC,010122.000,A,3307.6536,S,06421.0917,W,1.72,119.11,031218,,,A*6A
$GPGSA,A,2,14,08,27,,,,,,,,,,4.7,3.5,3.2*3F
$GPGGA,010124.000,3307.6542,S,06421.0910,W,1,03,3.5,433.2,M,21.4,M,,0000*5A
$GPGSV,3,1,12,14,62,088,14,08,59,323,19,27,38,001,16,01,35,224,05*7C
$GPGSV,3,3,12,22,41,265,,03,23,278,,10,16,122,,28,04,234,*7D
$GPGGA,010125.000,3307.6545,S,06421.0905,W,1,03,3.5,433.2,M,21.4,M,,0000*58
$GPRMC,010125.000,A,3307.6545,S,06421.0905,W,1.64,120.74,031218,,,A*64
$GPGSA,A,2,14,08,27,,,,,,,,,,4.7,3.5,3.2*3F
$GPGGA,010127.000,3307.6547,S,06421.0890,W,6,00,50.0,433.2,M,21.4,M,,0000*62
$GPRMC,010127.000,V,3307.6547,S,06421.0890,W,1.96,119.10,031218,,,E*7F
$GPGSA,A,2,,,,,,,,,,,,,50.0,50.0,50.0*06
$GPGGA,010129.000,3307.6552,S,06421.0878,W,6,00,50.0,433.2,M,21.4,M,,0000*6E
$GPGSV,3,1,12,01,35,224,06,08,59,323,18,10,16,122,16,11,52,226,04*77
$GPGSV,3,3,12,22,41,265,,03,23,278,,31,10,050,,28,04,234,*7C
$GPGGA,010130.000,3307.6554,S,06421.0872,W,6,00,50.0,433.2,M,21.4,M,,0000*6A
$GPRMC,010130.000,V,3307.6554,S,06421.0872,W,1.96,118.02,031218,,,E*75
$GPGSA,A,2,,,,,,,,,,,,,50.0,50.0,50.0*06
$GPGGA,010132.000,3307.6559,S,06421.0860,W,6,00,50.0,433.2,M,21.4,M,,0000*66
$GPRMC,010132.000,V,3307.6559,S,06421.0860,W,1.96,117.58,031218,,,E*79
$GPGSA,A,2,,,,,,,,,,,,,50.0,50.0,50.0*06
$GPGGA,010134.000,3307.6563,S,06421.0849,W,6,00,50.0,433.2,M,21.4,M,,0000*62
$GPGSV,3,1,12,01,35,224,04,08,59,323,16,14,62,088,13,27,38,001,04*76
$GPGSV,3,3,12,03,23,278,,10,16,122,,31,10,050,,28,04,234,*7F
$GPGGA,010135.000,3307.6565,S,06421.0843,W,6,00,50.0,433.2,M,21.4,M,,0000*6F
$GPRMC,010135.000,V,3307.6565,S,06421.0843,W,1.96,117.11,031218,,,E*7D
$GPGSA,A,2,,,,,,,,,,,,,50.0,50.0,50.0*06
$GPGGA,010137.000,3307.6570,S,06421.0831,W,6,00,50.0,433.2,M,21.4,M,,0000*6C
$GPRMC,010137.000,V,3307.6570,S,06421.0831,W,1.96,116.86,031218,,,E*71
$GPGSA,A,2,,,,,,,,,,,,,50.0,50.0,50.0*06
$GPGGA,010139.000,3307.6575,S,06421.0819,W,6,00,50.0,433.2,M,21.4,M,,0000*6D
$GPGSV,3,1,12,01,35,224,04,08,59,323,15,14,62,088,14,27,38,001,04*72
$GPGSV,3,3,12,03,23,278,,10,16,122,,31,10,050,,28,04,234,*7F
$GPGGA,010140.000,3307.6577,S,06421.0813,W,6,00,50.0,433.2,M,21.4,M,,0000*6B
$GPRMC,010140.000,V,3307.6577,S,06421.0813,W,1.96,116.57,031218,,,E*7A
$GPGSA,A,1,,,,,,,,,,,,,,,*1E
$GPGGA,010142.000,,,,,0,00,50.0,,M,0.0,M,,0000*4B
$GPRMC,010142.000,V,,,,,,,031218,,,N*42
$GPGSA,A,1,,,,,,,,,,,,,,,*1E
$GPGGA,010144.025,,,,,0,00,50.0,,M,0.0,M,,0000*4A
$GPGSV,3,1,12,01,35,224,04,08,59,323,15,14,62,088,14,27,38,001,04*72
$GPGSV,3,3,12,03,23,278,,10,16,122,,31,10,050,,28,04,234,*7F
$GPGGA,010145.025,,,,,0,00,50.0,,M,0.0,M,,0000*4B
$GPRMC,010145.025,V,,,,,,,031218,,,N*42
$GPGSA,A,1,,,,,,,,,,,,,,,*1E
$GPGGA,010147.025,3307.6571,S,06421.0800,W,1,03,2.3,433.3,M,21.4,M,,0000*5E
$GPRMC,010147.025,A,3307.6571,S,06421.0800,W,0.77,116.15,031218,,,A*65
$GPGSA,A,2,14,08,01,,,,,,,,,,3.9,2.3,3.2*35
$GPGGA,010149.000,3307.6573,S,06421.0801,W,1,03,2.3,433.2,M,21.4,M,,0000*55
$GPGSV,3,1,12,14,62,088,13,08,59,323,18,01,35,224,08,10,16,122,04*7C
$GPGSV,3,3,12,18,62,202,,22,41,265,,03,23,278,,31,10,050,*7A
$GPGGA,010150.000,3307.6560,S,06421.0790,W,1,03,2.3,433.2,M,21.4,M,,0000*58
$GPRMC,010150.000,A,3307.6560,S,06421.0790,W,1.48,146.60,031218,,,A*68
$GPGSA,A,2,,,,,,,,,,,,,50.0,50.0,50.0*06
$GPGGA,010152.000,3307.6568,S,06421.0792,W,6,00,50.0,433.2,M,21.4,M,,0000*60
$GPRMC,010152.000,V,3307.6568,S,06421.0792,W,1.48,154.53,031218,,,E*70
$GPGSA,A,2,,,,,,,,,,,,,50.0,50.0,50.0*06
$GPGGA,010154.000,3307.6576,S,06421.0794,W,6,00,50.0,433.1,M,21.4,M,,0000*6C
$GPGSV,3,1,12,01,35,224,13,03,23,278,10,10,16,122,04,11,52,226,14*70
$GPGSV,3,3,12,08,59,323,,32,47,122,,27,38,001,,31,10,050,*76
$GPGGA,010155.000,3307.6572,S,06421.0811,W,1,03,4.1,433.0,M,21.4,M,,0000*5E
$GPRMC,010155.000,A,3307.6572,S,06421.0811,W,0.98,159.45,031218,,,A*6D
$GPGSA,A,2,32,01,03,,,,,,,,,,4.0,2.5,3.2*32
$GPGGA,010157.000,3307.6553,S,06421.0811,W,1,03,2.5,432.9,M,21.4,M,,0000*55
$GPRMC,010157.000,A,3307.6553,S,06421.0811,W,0.65,159.45,031218,,,A*6E
$GPGSA,A,3,32,22,01,03,,,,,,,,,6.7,2.5,6.3*32
$GPGGA,010159.000,3307.6518,S,06421.0765,W,1,04,2.5,432.5,M,21.4,M,,0000*53
$GPGSV,3,1,12,32,47,122,22,22,41,265,15,01,35,224,23,03,23,278,14*73
$GPGSV,3,3,12,08,59,323,,27,38,001,,31,10,050,,28,04,234,*7E
$GPGGA,010200.000,3307.6517,S,06421.0752,W,1,04,2.5,432.5,M,21.4,M,,0000*57
$GPRMC,010200.000,A,3307.6517,S,06421.0752,W,1.52,148.00,031218,,,A*63
$GPGSA,A,3,32,22,01,03,,,,,,,,,6.7,2.5,6.3*32
$GPGGA,010202.000,3307.6505,S,06421.0725,W,1,04,2.5,433.3,M,21.4,M,,0000*51
$GPRMC,010202.000,A,3307.6505,S,06421.0725,W,1.56,127.46,031218,,,A*6D
$GPGSA,A,3,32,22,01,03,,,,,,,,,6.7,2.5,6.3*32
$GPGGA,010204.000,3307.6499,S,06421.0704,W,1,05,2.2,434.4,M,21.4,M,,0000*56
$GPGSV,3,1,12,14,62,088,08,32,47,122,20,22,41,265,18,01,35,224,20*7C
$GPGSV,3,3,12,08,59,323,,27,38,001,,31,10,050,,28,04,234,*7E
$GPGGA,010205.000,3307.6520,S,06421.0682,W,1,06,1.9,433.1,M,21.4,M,,0000*52
$GPRMC,010205.000,A,3307.6520,S,06421.0682,W,2.34,103.31,031218,,,A*60
$GPGSA,A,3,14,32,22,01,03,10,,,,,,,2.9,1.9,2.2*36
$GPGGA,010207.000,3307.6524,S,06421.0641,W,1,05,2.2,429.0,M,21.4,M,,0000*5A
$GPRMC,010207.000,A,3307.6524,S,06421.0641,W,3.26,97.33,031218,,,A*55
$GPGSA,A,3,32,22,03,10,,,,,,,,,9.5,9.1,2.7*30
$GPGGA,010209.000,3307.6524,S,06421.0622,W,1,04,9.1,428.2,M,21.4,M,,0000*5B
$GPGSV,3,1,12,32,47,122,20,22,41,265,22,03,23,278,13,10,16,122,21*74
$GPGSV,3,3,12,08,59,323,,27,38,001,,31,10,050,,28,04,234,*7E
$GPGGA,010210.000,3307.6522,S,06421.0613,W,1,05,2.3,427.6,M,21.4,M,,0000*54
$GPRMC,010210.000,A,3307.6522,S,06421.0613,W,2.71,93.19,031218,,,A*5D
$GPGSA,A,3,32,22,01,03,10,,,,,,,,3.5,2.3,2.7*32
$GPGGA,010212.000,3307.6525,S,06421.0598,W,1,06,2.2,429.7,M,21.4,M,,0000*5C
$GPRMC,010212.000,A,3307.6525,S,06421.0598,W,1.90,93.29,031218,,,A*57
$GPGSA,A,3,11,32,22,01,03,10,,,,,,,3.2,2.2,2.4*37
$GPGGA,010214.000,3307.6528,S,06421.0582,W,1,05,3.9,429.6,M,21.4,M,,0000*54
$GPGSV,3,1,12,11,52,226,15,32,47,122,20,22,41,265,21,03,23,278,14*71
$GPGSV,3,3,12,28,04,234,13,18,62,202,,27,38,001,,31,10,050,*77
$GPGGA,010215.000,3307.6533,S,06421.0574,W,1,06,2.2,429.9,M,21.4,M,,0000*50
$GPRMC,010215.000,A,3307.6533,S,06421.0574,W,2.23,95.84,031218,,,A*5F
$GPGSA,A,3,14,11,32,10,,,,,,,,,7.6,5.5,5.3*30
$GPGGA,010217.000,3307.6538,S,06421.0567,W,1,04,5.5,430.6,M,21.4,M,,0000*5E
$GPRMC,010217.000,A,3307.6538,S,06421.0567,W,1.80,99.65,031218,,,A*5D
$GPGSA,A,3,14,11,32,22,10,,,,,,,,4.0,2.9,2.8*32
$GPGGA,010219.000,3307.6536,S,06421.0567,W,1,06,2.4,431.6,M,21.4,M,,0000*5B
$GPGSV,3,1,12,14,62,088,14,11,52,226,14,32,47,122,19,22,41,265,12*74
$GPGSV,3,3,12,08,59,323,,27,38,001,,31,10,050,,28,04,234,*7E
$GPGGA,010220.000,3307.6531,S,06421.0568,W,1,06,2.4,431.7,M,21.4,M,,0000*58
$GPRMC,010220.000,A,3307.6531,S,06421.0568,W,0.50,100.06,031218,,,A*67
$GPGSA,A,3,14,11,32,22,01,10,,,,,,,3.7,2.4,2.8*3E
$GPGGA,010222.000,3307.6515,S,06421.0563,W,1,05,2.9,433.5,M,21.4,M,,0000*59
$GPRMC,010222.000,A,3307.6515,S,06421.0563,W,1.48,81.10,031218,,,A*5F
$GPGSA,A,3,14,11,32,22,01,10,,,,,,,3.7,2.4,2.8*3E
$GPGGA,010224.000,3307.6514,S,06421.0554,W,1,06,2.4,432.6,M,21.4,M,,0000*56
$GPGSV,3,1,12,14,62,088,18,11,52,226,15,32,47,122,20,22,41,265,16*77
$GPGSV,3,3,12,18,62,202,,27,38,001,,31,10,050,,28,04,234,*75
$GPGGA,010225.000,3307.6513,S,06421.0547,W,1,06,2.4,432.0,M,21.4,M,,0000*54
$GPRMC,010225.000,A,3307.6513,S,06421.0547,W,2.50,67.79,031218,,,A*55
$GPGSA,A,3,14,11,32,22,01,10,,,,,,,3.7,2.4,2.8*3E
$GPGGA,010227.000,3307.6508,S,06421.0529,W,1,05,2.9,431.4,M,21.4,M,,0000*5D
$GPRMC,010227.000,A,3307.6508,S,06421.0529,W,3.10,64.68,031218,,,A*53
$GPGSA,A,3,14,11,32,22,01,10,,,,,,,3.7,2.4,2.8*3E
$GPGGA,010229.000,3307.6496,S,06421.0516,W,1,06,2.4,430.9,M,21.4,M,,0000*5B
$GPGSV,3,1,12,14,62,088,15,11,52,226,14,32,47,122,19,22,41,265,16*71
$GPGSV,3,3,12,08,59,323,,27,38,001,,31,10,050,,28,04,234,*7E
$GPGGA,010230.000,3307.6485,S,06421.0511,W,1,05,5.3,430.6,M,21.4,M,,0000*5A
$GPRMC,010230.000,A,3307.6485,S,06421.0511,W,3.73,49.04,031218,,,A*5A
$GPGSA,A,3,14,11,32,22,01,10,,,,,,,3.7,2.4,2.8*3E
$GPGGA,010232.000,3307.6479,S,06421.0492,W,1,06,2.4,430.6,M,21.4,M,,0000*52
$GPRMC,010232.000,A,3307.6479,S,06421.0492,W,3.03,47.25,031218,,,A*5B
$GPGSA,A,3,14,11,32,22,01,10,,,,,,,3.7,2.4,2.8*3E
$GPGGA,010234.000,3307.6481,S,06421.0474,W,1,05,2.6,430.6,M,21.4,M,,0000*5A
$GPGSV,3,1,12,14,62,088,10,11,52,226,14,22,41,265,17,01,35,224,17*7B
$GPGSV,3,3,12,32,47,122,06,18,62,202,,31,10,050,,28,04,234,*7F
$GPGGA,010235.000,3307.6483,S,06421.0468,W,1,06,2.4,430.5,M,21.4,M,,0000*56
$GPRMC,010235.000,A,3307.6483,S,06421.0468,W,1.27,49.70,031218,,,A*56
$GPGSA,A,3,14,08,11,32,22,01,03,10,,,,,2.3,1.4,1.9*31
$GPGGA,010237.000,3307.6495,S,06421.0451,W,1,07,1.4,430.3,M,21.4,M,,0000*5D
$GPRMC,010237.000,A,3307.6495,S,06421.0451,W,1.36,58.07,031218,,,A*59
$GPGSA,A,3,08,11,32,22,01,03,,,,,,,3.8,1.7,3.4*33
$GPGGA,010239.000,3307.6503,S,06421.0443,W,1,06,1.7,430.5,M,21.4,M,,0000*5A
$GPGSV,3,1,12,08,59,323,10,11,52,226,16,32,47,122,16,22,41,265,16*7E
$GPGSV,3,3,12,18,62,202,,27,38,001,,31,10,050,,28,04,234,*75
$GPGGA,010240.000,3307.6504,S,06421.0440,W,1,06,1.7,430.6,M,21.4,M,,0000*53
$GPRMC,010240.000,A,3307.6504,S,06421.0440,W,0.84,58.07,031218,,,A*58
$GPGSA,A,3,08,11,32,22,01,03,,,,,,,3.8,1.7,3.4*33
$GPGGA,010242.000,3307.6503,S,06421.0428,W,1,04,2.6,430.6,M,21.4,M,,0000*58
$GPRMC,010242.000,A,3307.6503,S,06421.0428,W,1.54,74.62,031218,,,A*52
$GPGSA,A,3,11,32,22,01,03,,,,,,,,5.2,2.5,4.6*33
$GPGGA,010244.000,3307.6503,S,06421.0411,W,1,06,1.9,430.8,M,21.4,M,,0000*54
$GPGSV,3,1,12,14,62,088,09,11,52,226,18,32,47,122,20,22,41,265,17*7B
$GPGSV,3,3,12,18,62,202,,27,38,001,,31,10,050,,28,04,234,*75
$GPGGA,010245.000,3307.6510,S,06421.0403,W,1,06,1.9,430.8,M,21.4,M,,0000*54
$GPRMC,010245.000,A,3307.6510,S,06421.0403,W,2.15,92.04,031218,,,A*50
$GPGSA,A,3,14,11,32,22,01,03,10,,,,,,2.6,1.7,1.9*3F
$GPGGA,010247.000,3307.6525,S,06421.0370,W,1,08,1.4,430.6,M,21.4,M,,0000*5E
$GPRMC,010247.000,A,3307.6525,S,06421.0370,W,2.43,103.01,031218,,,A*68
$GPGSA,A,3,14,08,11,32,22,01,03,10,,,,,2.3,1.4,1.9*31
$GPGGA,010249.000,3307.6530,S,06421.0348,W,1,08,1.4,430.7,M,21.4,M,,0000*5E
$GPGSV,3,1,12,14,62,088,18,08,59,323,12,11,52,226,23,32,47,122,27*73
$GPGSV,3,3,12,18,62,202,25,27,38,001,,31,10,050,,28,04,234,*72
$GPGGA,010250.000,3307.6532,S,06421.0337,W,1,08,1.4,431.1,M,21.4,M,,0000*5B
$GPRMC,010250.000,A,3307.6532,S,06421.0337,W,2.45,99.35,031218,,,A*58
$GPGSA,A,3,14,08,11,32,22,01,03,,,,,,3.7,1.6,3.3*3F
$GPGGA,010252.000,3307.6539,S,06421.0326,W,1,08,1.4,431.2,M,21.4,M,,0000*51
$GPRMC,010252.000,A,3307.6539,S,06421.0326,W,2.08,102.34,031218,,,A*6A
$GPGSA,A,3,14,11,32,22,01,03,10,,,,,,2.6,1.7,1.9*3F
$GPGGA,010254.000,3307.6538,S,06421.0314,W,1,06,2.4,431.2,M,21.4,M,,0000*5A
$GPGSV,3,1,12,14,62,088,15,11,52,226,17,32,47,122,21,22,41,265,15*7A
$GPGSV,3,3,12,18,62,202,17,27,38,001,,31,10,050,,28,04,234,*73
$GPGGA,010255.000,3307.6538,S,06421.0307,W,1,06,2.4,431.4,M,21.4,M,,0000*5F
$GPRMC,010255.000,A,3307.6538,S,06421.0307,W,2.12,103.31,031218,,,A*60
$GPGSA,A,3,14,11,32,22,01,10,,,,,,,3.7,2.4,2.8*3E
$GPGGA,010257.000,3307.6543,S,06421.0284,W,1,05,2.9,431.7,M,21.4,M,,0000*56
$GPRMC,010257.000,A,3307.6543,S,06421.0284,W,3.05,103.86,031218,,,A*6F
$GPGSA,A,3,11,32,22,01,10,,,,,,,,4.2,2.9,3.0*3D
$GPGGA,010259.000,3307.6543,S,06421.0271,W,1,05,2.9,432.0,M,21.4,M,,0000*56
$GPGSV,3,1,12,11,52,226,17,32,47,122,17,22,41,265,17,01,35,224,17*7D
$GPGSV,3,3,12,18,62,202,17,27,38,001,,31,10,050,,28,04,234,*73
$GPGGA,010300.000,3307.6543,S,06421.0266,W,1,05,2.9,432.1,M,21.4,M,,0000*5C
$GPRMC,010300.000,A,3307.6543,S,06421.0266,W,1.19,103.29,031218,,,A*6A
$GPGSA,A,3,11,32,22,01,03,10,,,,,,,3.3,2.2,2.4*36
$GPGGA,010302.000,3307.6529,S,06421.0266,W,1,06,2.2,431.5,M,21.4,M,,0000*5D
$GPRMC,010302.000,A,3307.6529,S,06421.0266,W,0.39,103.29,031218,,,A*67
$GPGSA,A,3,11,32,22,01,03,10,,,,,,,3.3,2.2,2.4*36
$GPGGA,010304.000,3307.6525,S,06421.0260,W,1,06,1.6,431.0,M,21.4,M,,0000*53
$GPGSV,3,1,12,08,59,323,13,32,47,122,21,22,41,265,16,01,35,224,15*78
$GPGSV,3,3,12,11,52,226,,27,38,001,,31,10,050,,28,04,234,*79
$GPGGA,010305.000,3307.6527,S,06421.0257,W,1,06,1.6,430.7,M,21.4,M,,0000*52
$GPRMC,010305.000,A,3307.6527,S,06421.0257,W,0.64,103.29,031218,,,A*64
$GPGSA,A,3,08,32,22,01,10,,,,,,,,4.0,1.9,3.5*31
$GPGGA,010307.000,3307.6539,S,06421.0250,W,1,05,1.9,430.7,M,21.4,M,,0000*54
$GPRMC,010307.000,A,3307.6539,S,06421.0250,W,0.90,103.29,031218,,,A*65
$GPGSA,A,3,32,22,01,10,,,,,,,,,4.7,3.1,3.5*34
$GPGGA,010309.000,3307.6522,S,06421.0232,W,1,04,3.1,430.9,M,21.4,M,,0000*51
$GPGSV,3,1,12,32,47,122,21,22,41,265,15,01,35,224,11,10,16,122,18*75
$GPGSV,3,3,12,18,62,202,,27,38,001,,31,10,050,,28,04,234,*75
$GPGGA,010310.000,3307.6518,S,06421.0220,W,1,04,3.1,431.0,M,21.4,M,,0000*5B
$GPRMC,010310.000,A,3307.6518,S,06421.0220,W,3.26,81.58,031218,,,A*54
$GPGSA,A,3,32,22,01,10,,,,,,,,,4.7,3.1,3.5*34
$GPGGA,010312.000,3307.6529,S,06421.0204,W,1,05,2.9,431.2,M,21.4,M,,0000*57
$GPRMC,010312.000,A,3307.6529,S,06421.0204,W,2.56,77.25,031218,,,A*57
$GPGSA,A,3,11,32,22,10,,,,,,,,,5.7,4.8,3.2*3D
$GPGGA,010314.000,3307.6515,S,06421.0192,W,1,04,4.8,431.5,M,21.4,M,,0000*53
$GPGSV,3,1,12,11,52,226,15,32,47,122,20,22,41,265,15,10,16,122,18*72
$GPGSV,3,3,12,08,59,323,,03,23,278,,31,10,050,,28,04,234,*7E
$GPGGA,010315.000,3307.6518,S,06421.0185,W,1,04,4.8,431.6,M,21.4,M,,0000*5A
$GPRMC,010315.000,A,3307.6518,S,06421.0185,W,1.91,69.20,031218,,,A*5A
$GPGSA,A,3,11,32,22,10,,,,,,,,,5.7,4.8,3.2*3D
$GPGGA,010317.000,3307.6530,S,06421.0175,W,1,04,4.8,432.1,M,21.4,M,,0000*59
$GPRMC,010317.000,A,3307.6530,S,06421.0175,W,1.54,70.11,031218,,,A*5E
$GPGSA,A,3,11,32,22,10,,,,,,,,,5.7,4.8,3.2*3D
$GPGGA,010319.000,3307.6537,S,06421.0164,W,1,04,4.8,432.2,M,21.4,M,,0000*53
$GPGSV,3,1,12,11,52,226,15,32,47,122,20,22,41,265,15,10,16,122,18*72
$GPGSV,3,3,12,18,62,202,,08,59,323,,31,10,050,,28,04,234,*7C
$GPGGA,010320.000,3307.6538,S,06421.0156,W,1,04,4.8,432.2,M,21.4,M,,0000*57
$GPRMC,010320.000,A,3307.6538,S,06421.0156,W,1.81,74.81,031218,,,A*56
$GPGSA,A,3,11,32,22,10,,,,,,,,,5.7,4.8,3.2*3D
$GPGGA,010322.000,3307.6535,S,06421.0133,W,1,05,4.1,432.3,M,21.4,M,,0000*52
$GPRMC,010322.000,A,3307.6535,S,06421.0133,W,2.97,80.24,031218,,,A*5A
$GPGSA,A,3,11,32,22,03,10,,,,,,,,4.9,4.1,2.7*3C
$GPGGA,010324.000,3307.6525,S,06421.0111,W,1,05,4.1,432.3,M,21.4,M,,0000*55
$GPGSV,3,1,12,11,52,226,16,32,47,122,20,22,41,265,15,03,23,278,13*72
$GPGSV,3,3,12,27,38,001,06,18,62,202,,31,10,050,,28,04,234,*73
$GPGGA,010325.000,3307.6527,S,06421.0103,W,1,05,4.1,432.2,M,21.4,M,,0000*54
$GPRMC,010325.000,A,3307.6527,S,06421.0103,W,2.73,82.20,031218,,,A*51
$GPGSA,A,3,11,32,22,10,,,,,,,,,5.8,4.8,3.2*32
$GPGGA,010327.000,3307.6528,S,06421.0087,W,1,04,4.8,432.3,M,21.4,M,,0000*5D
$GPRMC,010327.000,A,3307.6528,S,06421.0087,W,2.45,82.57,031218,,,A*54
$GPGSA,A,3,11,32,22,10,,,,,,,,,5.8,4.8,3.2*32
$GPGGA,010329.000,3307.6540,S,06421.0068,W,1,05,1.3,432.6,M,21.4,M,,0000*56
$GPGSV,3,1,12,32,47,122,21,22,41,265,15,27,38,001,09,03,23,278,19*79
$GPGSV,3,3,12,08,59,323,,11,52,226,,31,10,050,,28,04,234,*70
$GPGGA,010330.000,3307.6562,S,06421.0056,W,1,06,1.3,434.1,M,21.4,M,,0000*51
$GPRMC,010330.000,A,3307.6562,S,06421.0056,W,2.54,89.49,031218,,,A*54
$GPGSA,A,3,14,11,32,22,27,03,10,,,,,,2.2,1.1,1.9*39
$GPGGA,010332.000,3307.6599,S,06421.0052,W,1,06,1.2,434.8,M,21.4,M,,0000*5B
$GPRMC,010332.000,A,3307.6599,S,06421.0052,W,1.96,93.61,031218,,,A*5A
$GPGSA,A,3,14,32,22,27,10,,,,,,,,2.8,1.4,2.4*3B
$GPGGA,010334.000,3307.6606,S,06421.0038,W,1,06,2.3,434.8,M,21.4,M,,0000*56
$GPGSV,3,1,12,14,62,088,13,11,52,226,10,32,47,122,18,22,41,265,16*72
$GPGSV,3,3,12,18,62,202,,08,59,323,,31,10,050,,28,04,234,*7C
$GPGGA,010335.000,3307.6610,S,06421.0030,W,1,07,1.1,435.0,M,21.4,M,,0000*51
$GPRMC,010335.000,A,3307.6610,S,06421.0030,W,2.67,97.43,031218,,,A*52
$GPGSA,A,3,14,11,32,22,27,03,10,,,,,,2.2,1.1,1.9*39
$GPGGA,010337.000,3307.6616,S,06421.0013,W,1,07,1.1,435.3,M,21.4,M,,0000*57
$GPRMC,010337.000,A,3307.6616,S,06421.0013,W,2.46,97.77,031218,,,A*53
$GPGSA,A,3,11,32,22,27,01,03,10,,,,,,2.5,1.1,2.3*33
$GPGGA,010339.000,3307.6622,S,06420.9994,W,1,07,1.1,435.3,M,21.4,M,,0000*50
$GPGSV,3,1,12,11,52,226,22,32,47,122,24,22,41,265,16,27,38,001,10*71
$GPGSV,3,3,12,18,62,202,,08,59,323,,31,10,050,,28,04,234,*7C
$GPGGA,010340.000,3307.6625,S,06420.9986,W,1,08,1.0,435.5,M,21.4,M,,0000*52
$GPRMC,010340.000,A,3307.6625,S,06420.9986,W,2.48,99.20,031218,,,A*5C
$GPGSA,A,3,14,11,32,22,27,01,03,10,,,,,2.2,1.0,1.9*39
$GPGGA,010342.000,3307.6641,S,06420.9969,W,1,08,1.0,436.1,M,21.4,M,,0000*54
$GPRMC,010342.000,A,3307.6641,S,06420.9969,W,2.26,97.90,031218,,,A*50
$GPGSA,A,3,14,11,32,22,27,01,03,10,,,,,2.2,1.0,1.9*39
$GPGGA,010344.000,3307.6647,S,06420.9953,W,1,08,1.0,436.4,M,21.4,M,,0000*58
$GPGSV,3,1,12,14,62,088,12,11,52,226,23,32,47,122,24,22,41,265,12*78
$GPGSV,3,3,12,18,62,202,25,31,10,050,19,08,59,323,,28,04,234,*73
$GPGGA,010345.000,3307.6654,S,06420.9947,W,1,09,0.9,436.2,M,21.4,M,,0000*51
$GPRMC,010345.000,A,3307.6654,S,06420.9947,W,2.06,95.15,031218,,,A*52
$GPGSA,A,3,14,11,22,27,01,03,10,,,,,,2.2,1.1,2.0*33
$GPGGA,010347.000,3307.6666,S,06420.9937,W,1,07,1.1,436.3,M,21.4,M,,0000*53
$GPRMC,010347.000,A,3307.6666,S,06420.9937,W,1.74,94.97,031218,,,A*5B
$GPGSA,A,3,14,11,22,27,01,03,10,,,,,,2.2,1.1,2.0*33
$GPGGA,010349.000,3307.6671,S,06420.9928,W,1,06,2.2,436.4,M,21.4,M,,0000*53
$GPGSV,3,1,12,14,62,088,16,11,52,226,23,22,41,265,18,27,38,001,11*7C
$GPGSV,3,3,12,18,62,202,22,31,10,050,17,32,47,122,20,28,04,234,*7D
$GPGGA,010350.000,3307.6675,S,06420.9925,W,1,08,1.0,436.6,M,21.4,M,,0000*5F
$GPRMC,010350.000,A,3307.6675,S,06420.9925,W,1.06,92.02,031218,,,A*53
$GPGSA,A,3,14,11,32,22,27,01,03,10,,,,,2.2,1.0,1.9*39
$GPGGA,010352.000,3307.6675,S,06420.9918,W,1,08,1.0,436.9,M,21.4,M,,0000*5C
$GPRMC,010352.000,A,3307.6675,S,06420.9918,W,0.97,92.02,031218,,,A*56
$GPGSA,A,3,14,11,32,22,27,01,03,10,31,,,,1.9,0.9,1.6*34
$GPGGA,010354.000,3307.6673,S,06420.9910,W,1,08,1.0,437.3,M,21.4,M,,0000*5F
$GPGSV,3,1,12,14,62,088,20,11,52,226,15,32,47,122,21,22,41,265,17*7C
$GPGSV,3,3,12,08,59,323,19,31,10,050,15,18,62,202,,28,04,234,*70
$GPGGA,010355.000,3307.6672,S,06420.9907,W,1,06,1.6,437.4,M,21.4,M,,0000*56
$GPRMC,010355.000,A,3307.6672,S,06420.9907,W,1.19,78.62,031218,,,A*5D
$GPGSA,A,3,14,11,32,27,01,03,31,,,,,,2.4,1.2,2.1*35
$GPGGA,010357.000,3307.6674,S,06420.9906,W,1,06,1.6,437.4,M,21.4,M,,0000*53
$GPRMC,010357.000,A,3307.6674,S,06420.9906,W,0.11,78.62,031218,,,A*51
$GPGSA,A,3,14,11,32,27,01,03,,,,,,,4.5,1.6,4.3*30
$GPGGA,010359.000,3307.6676,S,06420.9902,W,1,06,1.6,437.6,M,21.4,M,,0000*59
$GPGSV,3,1,12,14,62,088,20,11,52,226,15,32,47,122,20,27,38,001,15*74
$GPGSV,3,3,12,18,62,202,,08,59,323,,10,16,122,,28,04,234,*7D
$GPGGA,010400.000,3307.6678,S,06420.9896,W,1,06,1.6,437.8,M,21.4,M,,0000*5E
$GPRMC,010400.000,A,3307.6678,S,06420.9896,W,1.23,86.38,031218,,,A*5E
$GPGSA,A,3,14,11,32,22,27,01,31,,,,,,2.5,1.2,2.2*34
$GPGGA,010402.000,3307.6684,S,06420.9877,W,1,07,1.2,438.1,M,21.4,M,,0000*53
$GPRMC,010402.000,A,3307.6684,S,06420.9877,W,2.51,111.16,031218,,,A*65
$GPGSA,A,3,14,11,32,22,27,01,,,,,,,5.0,1.4,4.7*31
$GPGGA,010404.000,3307.6691,S,06420.9861,W,1,09,1.0,438.4,M,21.4,M,,0000*5F
$GPGSV,3,1,12,14,62,088,19,08,59,323,11,11,52,226,17,32,47,122,17*75
$GPGSV,3,3,12,31,10,050,12,10,16,122,15,18,62,202,,28,04,234,*7A
$GPGGA,010405.000,3307.6695,S,06420.9856,W,1,08,1.2,438.6,M,21.4,M,,0000*5F
$GPRMC,010405.000,A,3307.6695,S,06420.9856,W,2.28,127.15,031218,,,A*69
$GPGSA,A,3,14,08,11,32,27,01,,,,,,,4.0,1.3,3.7*38
$GPGGA,010407.000,3307.6693,S,06420.9847,W,1,07,1.2,439.1,M,21.4,M,,0000*52
$GPRMC,010407.000,A,3307.6693,S,06420.9847,W,1.14,128.18,031218,,,A*63
$GPGSA,A,3,14,08,11,32,22,27,01,,,,,,3.9,1.2,3.7*37
$GPGGA,010409.000,3307.6696,S,06420.9837,W,1,07,1.2,439.2,M,21.4,M,,0000*5D
$GPGSV,3,1,12,14,62,088,12,08,59,323,13,11,52,226,18,32,47,122,17*73
$GPGSV,3,3,12,18,62,202,,03,23,278,,10,16,122,,28,04,234,*74
$GPGGA,010410.000,3307.6698,S,06420.9830,W,1,07,1.2,439.3,M,21.4,M,,0000*5D
$GPRMC,010410.000,A,3307.6698,S,06420.9830,W,1.72,122.89,031218,,,A*6C
$GPGSA,A,3,14,08,11,32,22,27,01,,,,,,3.9,1.2,3.7*37
$GPGGA,010412.000,3307.6704,S,06420.9819,W,1,07,1.2,439.4,M,21.4,M,,0000*57
$GPRMC,010412.000,A,3307.6704,S,06420.9819,W,1.73,121.27,031218,,,A*67
$GPGSA,A,3,14,08,11,32,22,27,01,,,,,,3.9,1.2,3.7*37
$GPGGA,010414.000,3307.6708,S,06420.9809,W,1,07,1.2,439.6,M,21.4,M,,0000*5E
$GPGSV,3,1,12,14,62,088,11,08,59,323,13,11,52,226,17,32,47,122,17*7F
$GPGSV,3,3,12,18,62,202,,03,23,278,,31,10,050,,28,04,234,*75
$GPGGA,010415.000,3307.6709,S,06420.9803,W,1,07,1.2,439.6,M,21.4,M,,0000*54
$GPRMC,010415.000,A,3307.6709,S,06420.9803,W,1.65,122.68,031218,,,A*69
$GPGSA,A,3,14,08,11,32,27,,,,,,,,5.2,1.6,5.0*3E
$GPGGA,010417.000,3307.6710,S,06420.9793,W,1,05,1.6,439.6,M,21.4,M,,0000*5E
$GPRMC,010417.000,A,3307.6710,S,06420.9793,W,1.36,120.57,031218,,,A*6D
$GPGSA,A,3,14,08,11,32,27,03,,,,,,,3.4,1.4,3.1*38
$GPGGA,010419.000,3307.6710,S,06420.9783,W,1,05,2.0,439.2,M,21.4,M,,0000*50
$GPGSV,3,1,12,14,62,092,11,08,58,324,17,11,53,227,16,27,36,002,09*79
$GPGSV,3,3,12,01,37,223,,10,15,122,,31,11,051,,28,04,236,*77
$GPGGA,010420.000,3307.6706,S,06420.9776,W,1,05,2.0,438.9,M,21.4,M,,0000*5D
$GPRMC,010420.000,A,3307.6706,S,06420.9776,W,1.75,107.38,031218,,,A*6E
$GPGSA,A,3,14,08,11,32,03,,,,,,,,3.9,1.9,3.4*38
$GPGGA,010422.000,3307.6701,S,06420.9762,W,1,05,1.7,438.8,M,21.4,M,,0000*58
$GPRMC,010422.000,A,3307.6701,S,06420.9762,W,2.19,91.29,031218,,,A*59
$GPGSA,A,3,14,11,32,22,27,03,,,,,,,4.4,1.6,4.1*32
$GPGGA,010424.000,3307.6702,S,06420.9745,W,1,06,1.4,438.7,M,21.4,M,,0000*57
$GPGSV,3,1,12,14,62,092,13,08,58,324,09,11,53,227,15,32,46,124,20*7A
$GPGSV,3,3,12,18,63,200,,10,15,122,,31,11,051,,28,04,236,*7F
$GPGGA,010425.000,3307.6701,S,06420.9736,W,1,07,1.3,438.8,M,21.4,M,,0000*58
$GPRMC,010425.000,A,3307.6701,S,06420.9736,W,2.53,84.88,031218,,,A*5E
$GPGSA,A,3,14,08,11,32,22,27,03,,,,,,3.3,1.3,3.1*38
$GPGGA,010427.000,3307.6697,S,06420.9722,W,1,07,1.3,438.8,M,21.4,M,,0000*51
$GPRMC,010427.000,A,3307.6697,S,06420.9722,W,2.44,77.56,031218,,,A*5E
$GPGSA,A,3,14,08,11,32,22,27,03,,,,,,3.3,1.3,3.1*38
$GPGGA,010429.000,3307.6698,S,06420.9706,W,1,06,1.3,438.8,M,21.4,M,,0000*57
$GPGSV,3,1,12,14,62,092,10,08,58,324,13,11,53,227,17,32,46,124,20*70
$GPGSV,3,3,12,10,15,122,07,18,63,200,,31,11,051,,28,04,236,*78
$GPGGA,010430.000,3307.6702,S,06420.9700,W,1,07,1.2,439.0,M,21.4,M,,0000*52
$GPRMC,010430.000,A,3307.6702,S,06420.9700,W,2.12,80.90,031218,,,A*54
$GPGSA,A,3,14,08,11,32,22,27,10,,,,,,2.5,1.2,2.2*3E
$GPGGA,010432.000,3307.6712,S,06420.9688,W,1,07,1.2,439.2,M,21.4,M,,0000*52
$GPRMC,010432.000,A,3307.6712,S,06420.9688,W,1.92,94.46,031218,,,A*53
$GPGSA,A,3,08,11,32,22,01,10,,,,,,,3.5,1.7,3.0*38
$GPGGA,010434.000,3307.6716,S,06420.9670,W,1,06,1.7,438.9,M,21.4,M,,0000*59
$GPGSV,3,1,12,08,58,324,11,11,53,227,17,32,46,124,21,22,42,263,13*7B
$GPGSV,3,3,12,27,36,002,07,18,63,200,,31,11,051,,28,04,236,*7E
$GPGGA,010435.000,3307.6717,S,06420.9662,W,1,06,1.7,438.8,M,21.4,M,,0000*5B
$GPRMC,010435.000,A,3307.6717,S,06420.9662,W,2.14,102.26,031218,,,A*60
$GPGSA,A,3,08,11,32,22,01,10,,,,,,,3.5,1.7,3.0*38
$GPGGA,010437.000,3307.6719,S,06420.9650,W,1,06,1.7,438.6,M,21.4,M,,0000*58
$GPRMC,010437.000,A,3307.6719,S,06420.9650,W,1.35,101.19,031218,,,A*62
$GPGSA,A,3,08,11,32,22,01,10,,,,,,,3.5,1.7,3.0*38
$GPGGA,010439.000,3307.6721,S,06420.9641,W,1,07,1.4,438.4,M,21.4,M,,0000*5D
$GPGSV,3,1,12,08,58,324,10,11,53,227,16,32,46,124,20,22,42,263,16*7F
$GPGSV,3,3,12,27,36,002,07,18,63,200,,31,11,051,,28,04,236,*7E
$GPGGA,010440.000,3307.6722,S,06420.9629,W,1,08,1.0,438.5,M,21.4,M,,0000*54
$GPRMC,010440.000,A,3307.6722,S,06420.9629,W,1.50,97.93,031218,,,A*5B
$GPGSA,A,3,14,08,11,32,22,01,27,03,10,,,,2.0,1.0,1.8*32
$GPGGA,010442.000,3307.6729,S,06420.9608,W,1,09,1.0,438.5,M,21.4,M,,0000*5F
$GPRMC,010442.000,A,3307.6729,S,06420.9608,W,2.11,92.60,031218,,,A*5E
$GPGSA,A,3,14,08,11,32,22,01,27,03,10,,,,2.0,1.0,1.8*32
$GPGGA,010444.000,3307.6739,S,06420.9591,W,1,08,1.0,438.2,M,21.4,M,,0000*5D
$GPGSV,3,1,12,14,62,092,18,11,53,227,21,32,46,124,25,22,42,263,21*78
$GPGSV,3,3,12,08,58,324,12,18,63,200,,31,11,051,,28,04,236,*78
$GPGGA,010445.000,3307.6744,S,06420.9585,W,1,08,1.0,438.5,M,21.4,M,,0000*54
$GPRMC,010445.000,A,3307.6744,S,06420.9585,W,0.67,95.75,031218,,,A*54
$GPGSA,A,3,14,11,32,22,01,27,03,10,,,,,2.2,1.0,1.9*39
$GPGGA,010447.000,3307.6749,S,06420.9575,W,1,08,1.0,438.5,M,21.4,M,,0000*54
$GPRMC,010447.000,A,3307.6749,S,06420.9575,W,0.80,95.75,031218,,,A*5D
$GPGSA,A,3,14,11,32,22,01,27,03,10,,,,,2.2,1.0,1.9*39
$GPGGA,010449.000,3307.6750,S,06420.9566,W,1,08,1.0,438.4,M,21.4,M,,0000*51
$GPGSV,3,1,12,14,62,092,17,11,53,227,21,32,46,124,24,22,42,263,20*77
$GPGSV,3,3,12,08,58,324,13,18,63,200,22,31,11,051,,28,04,236,*79
$GPGGA,010450.000,3307.6751,S,06420.9561,W,1,08,1.0,438.3,M,21.4,M,,0000*58
$GPRMC,010450.000,A,3307.6751,S,06420.9561,W,1.40,84.59,031218,,,A*54
$GPGSA,A,3,14,11,32,22,01,27,03,10,,,,,2.2,1.0,1.9*39
$GPGGA,010452.000,3307.6753,S,06420.9545,W,1,08,1.0,438.5,M,21.4,M,,0000*58
$GPRMC,010452.000,A,3307.6753,S,06420.9545,W,2.04,83.37,031218,,,A*5E
$GPGSA,A,3,14,11,32,22,01,03,10,,,,,,2.6,1.7,1.9*3F
$GPGGA,010454.000,3307.6750,S,06420.9520,W,1,07,1.7,438.4,M,21.4,M,,0000*57
$GPGSV,3,1,12,14,62,092,17,11,53,227,21,32,46,124,22,22,42,263,20*71
$GPGSV,3,3,12,18,63,200,21,27,36,002,08,31,11,051,,28,04,236,*72
$GPGGA,010455.000,3307.6750,S,06420.9509,W,1,08,1.0,438.3,M,21.4,M,,0000*52
$GPRMC,010455.000,A,3307.6750,S,06420.9509,W,2.61,81.55,031218,,,A*57
$GPGSA,A,3,14,11,32,22,01,27,03,,,,,,4.1,1.4,3.8*3A
$GPGGA,010457.000,3307.6753,S,06420.9484,W,1,07,1.4,439.0,M,21.4,M,,0000*5E
$GPRMC,010457.000,A,3307.6753,S,06420.9484,W,2.67,83.81,031218,,,A*5F
$GPGSA,A,3,14,11,22,01,27,03,,,,,,,5.6,2.2,5.1*37
$GPGGA,010459.000,3307.6752,S,06420.9468,W,1,07,1.4,439.3,M,21.4,M,,0000*50
$GPGSV,3,1,12,14,62,092,17,11,53,227,21,32,46,124,25,22,42,263,20*76
$GPGSV,3,3,12,18,63,200,22,10,15,122,,31,11,051,,28,04,236,*7F
$GPGGA,010500.000,3307.6754,S,06420.9459,W,1,07,1.4,439.6,M,21.4,M,,0000*5C
$GPRMC,010500.000,A,3307.6754,S,06420.9459,W,1.91,84.67,031218,,,A*5E
$GPGSA,A,3,14,11,32,22,01,27,03,,,,,,4.1,1.4,3.8*3A
$GPGGA,010502.000,3307.6762,S,06420.9437,W,1,07,1.4,440.6,M,21.4,M,,0000*5D
$GPRMC,010502.000,A,3307.6762,S,06420.9437,W,1.96,89.26,031218,,,A*5E
$GPGSA,A,3,14,11,32,22,01,27,03,,,,,,4.1,1.4,3.8*3A
$GPGGA,010504.000,3307.6773,S,06420.9408,W,1,07,1.4,441.4,M,21.4,M,,0000*54
$GPGSV,3,1,12,14,62,092,23,11,53,227,26,32,46,124,27,22,42,263,20*74
$GPGSV,3,3,12,18,63,200,23,31,11,051,04,10,15,122,,28,04,236,*7A
$GPGGA,010505.000,3307.6776,S,06420.9400,W,1,06,2.0,441.2,M,21.4,M,,0000*58
$GPRMC,010505.000,A,3307.6776,S,06420.9400,W,2.03,95.41,031218,,,A*5B
$GPGSA,A,3,14,11,32,22,01,03,,,,,,,4.3,2.0,3.9*3B
$GPGGA,010507.000,3307.6786,S,06420.9394,W,1,07,1.6,440.8,M,21.4,M,,0000*50
$GPRMC,010507.000,A,3307.6786,S,06420.9394,W,0.84,97.31,031218,,,A*54
$GPGSA,A,3,14,08,11,32,22,01,03,,,,,,3.7,1.6,3.4*38
$GPGGA,010509.000,3307.6804,S,06420.9383,W,1,07,1.6,440.3,M,21.4,M,,0000*56
$GPGSV,3,1,12,14,62,092,20,08,58,324,27,11,53,227,24,32,46,124,25*71
$GPGSV,3,3,12,27,36,002,04,10,15,122,,31,11,051,,28,04,236,*77
$GPGGA,010510.000,3307.6810,S,06420.9378,W,1,07,1.6,440.3,M,21.4,M,,0000*5F
$GPRMC,010510.000,A,3307.6810,S,06420.9378,W,1.77,119.45,031218,,,A*69
$GPGSA,A,3,14,11,32,22,01,03,,,,,,,4.3,2.0,3.9*3B
$GPGGA,010512.000,3307.6818,S,06420.9367,W,1,07,1.6,440.1,M,21.4,M,,0000*59
$GPRMC,010512.000,A,3307.6818,S,06420.9367,W,1.79,126.93,031218,,,A*64
$GPGSA,A,3,14,08,11,32,22,01,03,,,,,,3.7,1.6,3.4*38
$GPGGA,010514.000,3307.6823,S,06420.9353,W,1,08,1.2,440.1,M,21.4,M,,0000*5B
$GPGSV,3,1,12,14,62,092,17,08,58,324,28,11,53,227,22,32,46,124,25*7C
$GPGSV,3,3,12,10,15,122,20,18,63,200,23,28,04,236,11,31,11,051,*7C
$GPGGA,010515.000,3307.6828,S,06420.9348,W,1,08,1.2,440.1,M,21.4,M,,0000*5B
$GPRMC,010515.000,A,3307.6828,S,06420.9348,W,1.24,120.72,031218,,,A*6C
$GPGSA,A,3,14,08,11,32,22,01,03,,,,,,3.7,1.6,3.4*38
$GPGGA,010517.000,3307.6840,S,06420.9334,W,1,08,1.2,439.5,M,21.4,M,,0000*56
$GPRMC,010517.000,A,3307.6840,S,06420.9334,W,1.21,120.28,031218,,,A*61
$GPGSA,A,3,14,08,11,32,22,01,27,03,,,,,3.2,1.2,3.0*38
$GPGGA,010519.000,3307.6834,S,06420.9318,W,1,08,1.2,439.5,M,21.4,M,,0000*55
$GPGSV,3,1,12,14,62,092,20,08,58,324,23,11,53,227,22,32,46,124,27*71
$GPGSV,3,3,12,18,63,200,22,28,04,236,11,10,15,122,,31,11,051,*7F
$GPGGA,010520.000,3307.6834,S,06420.9309,W,1,08,1.2,439.7,M,21.4,M,,0000*5D
$GPRMC,010520.000,A,3307.6834,S,06420.9309,W,2.11,91.56,031218,,,A*5A
$GPGSA,A,3,14,08,32,22,01,27,03,,,,,,3.5,1.3,3.3*3D
$GPGGA,010522.000,3307.6827,S,06420.9294,W,1,07,1.3,439.8,M,21.4,M,,0000*59
$GPRMC,010522.000,A,3307.6827,S,06420.9294,W,1.94,77.86,031218,,,A*54
$GPGSA,A,3,14,08,32,22,01,27,03,,,,,,3.5,1.3,3.3*3D
$GPGGA,010524.000,3307.6827,S,06420.9273,W,1,08,1.2,440.1,M,21.4,M,,0000*5F
$GPGSV,3,1,12,14,62,092,24,08,58,324,26,11,53,227,22,32,46,124,27*70
$GPGSV,3,3,12,18,63,200,22,10,15,122,,31,11,051,,28,04,236,*7F
$GPGGA,010525.000,3307.6827,S,06420.9264,W,1,09,1.0,440.1,M,21.4,M,,0000*5B
$GPRMC,010525.000,A,3307.6827,S,06420.9264,W,2.07,84.93,031218,,,A*5D
$GPGSA,A,3,14,08,11,32,22,01,27,03,10,,,,2.0,1.0,1.8*32
$GPGGA,010527.000,3307.6826,S,06420.9248,W,1,09,1.0,439.4,M,21.4,M,,0000*5D
$GPRMC,010527.000,A,3307.6826,S,06420.9248,W,2.20,95.17,031218,,,A*59
$GPGSA,A,3,14,08,11,32,22,01,03,10,,,,,2.3,1.4,1.9*31
$GPGGA,010529.000,3307.6828,S,06420.9232,W,1,09,1.0,438.5,M,21.4,M,,0000*50
$GPGSV,3,1,12,14,62,092,19,08,58,324,28,11,53,227,23,32,46,124,26*70
$GPGSV,3,3,12,10,15,122,22,18,63,200,22,31,11,051,,28,04,236,*7F
$GPGGA,010530.000,3307.6830,S,06420.9225,W,1,09,1.0,437.7,M,21.4,M,,0000*5A
$GPRMC,010530.000,A,3307.6830,S,06420.9225,W,2.05,106.10,031218,,,A*68
$GPGSA,A,3,14,08,11,32,22,01,27,03,10,,,,2.0,1.0,1.8*32
$GPGGA,010532.000,3307.6835,S,06420.9214,W,1,09,1.0,436.6,M,21.4,M,,0000*5F
$GPRMC,010532.000,A,3307.6835,S,06420.9214,W,2.06,118.15,031218,,,A*64
$GPGSA,A,3,14,08,11,32,22,01,27,03,10,,,,2.0,1.0,1.8*32
$GPGGA,010534.000,3307.6846,S,06420.9200,W,1,09,1.0,437.0,M,21.4,M,,0000*5F
$GPGSV,3,1,12,14,62,092,15,08,58,324,28,11,53,227,24,32,46,124,25*78
$GPGSV,3,3,12,10,15,122,23,18,63,200,26,31,11,051,,28,04,236,*7A
$GPGGA,010535.000,3307.6849,S,06420.9193,W,1,09,1.0,436.8,M,21.4,M,,0000*51
$GPRMC,010535.000,A,3307.6849,S,06420.9193,W,2.29,120.38,031218,,,A*6D
$GPGSA,A,3,14,08,11,32,22,01,27,03,10,,,,2.0,1.0,1.8*32
$GPGGA,010537.000,3307.6854,S,06420.9174,W,1,09,1.0,436.7,M,21.4,M,,0000*59
$GPRMC,010537.000,A,3307.6854,S,06420.9174,W,2.66,114.14,031218,,,A*68
$GPGSA,A,3,14,08,11,32,22,01,27,03,10,,,,2.0,1.0,1.8*32
$GPGGA,010539.000,3307.6859,S,06420.9157,W,1,09,1.0,436.8,M,21.4,M,,0000*54
$GPGSV,3,1,12,14,62,092,15,08,58,324,08,11,53,227,28,32,46,124,27*74
$GPGSV,3,3,12,10,15,122,19,18,63,200,26,31,11,051,11,28,04,236,*73
$GPGGA,010540.000,3307.6863,S,06420.9147,W,1,09,1.0,437.0,M,21.4,M,,0000*5B
$GPRMC,010540.000,A,3307.6863,S,06420.9147,W,2.91,107.45,031218,,,A*62
$GPGSA,A,3,14,08,11,32,22,27,03,10,,,,,2.1,1.1,1.8*33
$GPGGA,010542.000,3307.6871,S,06420.9128,W,1,09,1.0,437.0,M,21.4,M,,0000*53
$GPRMC,010542.000,A,3307.6871,S,06420.9128,W,2.74,107.84,031218,,,A*6C
$GPGSA,A,3,14,08,11,32,22,01,27,03,10,,,,2.0,1.0,1.8*32
$GPGGA,010544.000,3307.6876,S,06420.9110,W,1,08,1.2,436.8,M,21.4,M,,0000*53
$GPGSV,3,1,12,14,62,092,15,08,58,324,12,11,53,227,26,32,46,124,27*71
$GPGSV,3,3,12,10,15,122,18,18,63,200,25,31,11,051,19,28,04,236,*79
$GPGGA,010545.000,3307.6880,S,06420.9102,W,1,07,1.3,436.8,M,21.4,M,,0000*56
$GPRMC,010545.000,A,3307.6880,S,06420.9102,W,2.55,107.77,031218,,,A*62
$GPGSA,A,3,14,08,11,32,22,01,27,03,,,,,3.2,1.2,2.9*30
$GPGGA,010547.000,3307.6884,S,06420.9090,W,1,09,1.0,436.9,M,21.4,M,,0000*56
$GPRMC,010547.000,A,3307.6884,S,06420.9090,W,1.98,109.20,031218,,,A*60
$GPGSA,A,3,14,08,11,32,22,01,27,03,10,,,,2.0,1.0,1.8*32
$GPGGA,010549.000,3307.6892,S,06420.9074,W,1,09,1.0,436.9,M,21.4,M,,0000*55
$GPGSV,3,1,12,14,62,092,11,08,58,324,14,11,53,227,25,32,46,124,26*71
$GPGSV,3,3,12,10,15,122,10,18,63,200,26,31,11,051,19,28,04,236,*72
$GPGGA,010550.000,3307.6897,S,06420.9067,W,1,08,1.1,437.1,M,21.4,M,,0000*53
$GPRMC,010550.000,A,3307.6897,S,06420.9067,W,2.06,112.29,031218,,,A*6B
$GPGSA,A,3,14,08,11,32,22,27,03,10,,,,,2.1,1.1,1.8*33
$GPGGA,010552.000,3307.6901,S,06420.9056,W,1,08,1.1,437.0,M,21.4,M,,0000*5C
$GPRMC,010552.000,A,3307.6901,S,06420.9056,W,1.89,111.51,031218,,,A*6D
$GPGSA,A,3,14,08,11,32,22,27,03,10,,,,,2.1,1.1,1.8*33
$GPGGA,010554.000,3307.6903,S,06420.9041,W,1,07,1.3,436.9,M,21.4,M,,0000*5B
$GPGSV,3,1,12,14,62,092,11,08,58,324,13,11,53,227,25,32,46,124,23*73
$GPGSV,3,3,12,10,15,122,06,18,63,200,26,31,11,051,17,28,04,236,*7B
$GPGGA,010555.000,3307.6900,S,06420.9032,W,1,07,1.3,436.8,M,21.4,M,,0000*5C
$GPRMC,010555.000,A,3307.6900,S,06420.9032,W,2.25,100.95,031218,,,A*64
$GPGSA,A,3,14,08,11,32,22,27,03,,,,,,3.3,1.3,3.0*39
$GPGGA,010557.000,3307.6896,S,06420.9011,W,1,07,1.3,436.9,M,21.4,M,,0000*50
$GPRMC,010557.000,A,3307.6896,S,06420.9011,W,3.06,85.54,031218,,,A*58
$GPGSA,A,3,14,08,11,32,22,27,,,,,,,4.6,1.3,4.4*3B
$GPGGA,010559.000,3307.6902,S,06420.8993,W,1,08,1.2,436.9,M,21.4,M,,0000*5E
$GPGSV,3,1,12,14,62,092,22,08,58,324,26,11,53,227,20,32,46,124,22*71
$GPGSV,3,3,12,10,15,122,09,18,63,200,20,31,11,051,17,28,04,236,*72
$GPGGA,010600.000,3307.6902,S,06420.8986,W,1,08,1.2,437.1,M,21.4,M,,0000*5C
$GPRMC,010600.000,A,3307.6902,S,06420.8986,W,2.40,92.42,031218,,,A*51
$GPGSA,A,3,14,08,11,32,22,01,27,03,,,,,3.2,1.2,2.9*30
$GPGGA,010602.000,3307.6908,S,06420.8970,W,1,08,1.2,437.1,M,21.4,M,,0000*5D
$GPRMC,010602.000,A,3307.6908,S,06420.8970,W,2.38,100.96,031218,,,A*6C
$GPGSA,A,3,14,08,11,32,22,01,27,03,,,,,3.2,1.2,2.9*30
$GPGGA,010604.000,3307.6909,S,06420.8954,W,1,08,1.2,437.1,M,21.4,M,,0000*5C
$GPGSV,3,1,12,14,62,092,21,08,58,324,27,11,53,227,21,32,46,124,25*75
$GPGSV,3,3,12,10,15,122,15,18,63,200,26,31,11,051,16,28,04,236,*78
$GPGGA,010605.000,3307.6911,S,06420.8947,W,1,08,1.2,437.1,M,21.4,M,,0000*56
$GPRMC,010605.000,A,3307.6911,S,06420.8947,W,1.96,104.23,031218,,,A*6A
$GPGSA,A,3,14,08,11,32,22,01,27,03,,,,,3.2,1.2,2.9*30
$GPGGA,010607.000,3307.6912,S,06420.8930,W,1,08,1.2,436.9,M,21.4,M,,0000*5E
$GPRMC,010607.000,A,3307.6912,S,06420.8930,W,2.28,99.58,031218,,,A*54
$GPGSA,A,3,14,08,11,32,22,01,27,03,,,,,3.2,1.2,2.9*30
$GPGGA,010609.000,3307.6910,S,06420.8914,W,1,08,1.2,436.9,M,21.4,M,,0000*54
$GPGSV,3,1,12,14,62,092,17,08,58,324,17,11,53,227,21,32,46,124,26*70
$GPGSV,3,3,12,18,63,200,25,31,11,051,08,10,15,122,,28,04,236,*70
$GPGGA,010610.000,3307.6911,S,06420.8909,W,1,08,1.2,436.9,M,21.4,M,,0000*51
$GPRMC,010610.000,A,3307.6911,S,06420.8909,W,1.36,93.79,031218,,,A*5E
$GPGSA,A,3,14,08,11,32,22,01,27,03,,,,,3.2,1.2,2.9*30
$GPGGA,010612.000,3307.6913,S,06420.8896,W,1,08,1.2,436.9,M,21.4,M,,0000*56
$GPRMC,010612.000,A,3307.6913,S,06420.8896,W,1.51,93.51,031218,,,A*52
$GPGSA,A,3,14,08,11,32,22,01,27,03,,,,,3.2,1.2,2.9*30
$GPGGA,010614.000,3307.6918,S,06420.8882,W,1,08,1.2,436.7,M,21.4,M,,0000*50
$GPGSV,3,1,12,14,62,092,20,08,58,324,28,11,53,227,22,32,46,124,28*75
$GPGSV,3,3,12,10,15,122,13,18,63,200,21,28,04,236,13,31,11,051,08*74
$GPGGA,010615.000,3307.6920,S,06420.8875,W,1,08,1.2,436.9,M,21.4,M,,0000*5C
$GPRMC,010615.000,A,3307.6920,S,06420.8875,W,2.31,96.09,031218,,,A*55
$GPGSA,A,3,14,08,11,32,22,01,27,03,,,,,3.2,1.2,2.9*30
$GPGGA,010617.000,3307.6926,S,06420.8859,W,1,08,1.2,437.3,M,21.4,M,,0000*5D
$GPRMC,010617.000,A,3307.6926,S,06420.8859,W,2.61,103.81,031218,,,A*67
$GPGSA,A,3,14,08,11,32,22,01,27,03,,,,,3.2,1.2,2.9*30
$GPGGA,010619.000,3307.6930,S,06420.8844,W,1,08,1.2,437.6,M,21.4,M,,0000*5D
$GPGSV,3,1,12,14,62,092,20,08,58,324,25,11,53,227,26,32,46,124,28*7C
$GPGSV,3,3,12,10,15,122,14,18,63,200,27,28,04,236,13,31,11,051,10*7C
$GPGGA,010620.000,3307.6933,S,06420.8838,W,1,08,1.2,437.9,M,21.4,M,,0000*50
$GPRMC,010620.000,A,3307.6933,S,06420.8838,W,2.30,104.91,031218,,,A*62
$GPGSA,A,3,14,08,11,32,22,01,27,03,,,,,3.2,1.2,2.9*30
$GPGGA,010622.000,3307.6939,S,06420.8823,W,1,08,1.2,438.2,M,21.4,M,,0000*56
$GPRMC,010622.000,A,3307.6939,S,06420.8823,W,2.55,107.34,031218,,,A*6F
$GPGSA,A,3,14,08,11,32,22,01,27,03,,,,,3.2,1.2,2.9*30
$GPGGA,010624.000,3307.6942,S,06420.8810,W,1,07,1.3,438.4,M,21.4,M,,0000*54
$GPGSV,3,1,12,14,62,092,10,08,58,324,26,11,53,227,26,32,46,124,22*76
$GPGSV,3,3,12,10,15,122,14,18,63,200,24,28,04,236,12,31,11,051,09*76
$GPGGA,010625.000,3307.6942,S,06420.8804,W,1,06,1.9,438.3,M,21.4,M,,0000*5C
