$GPGSA,A,3,26,10,16,21,27,29,15,,,,,,2.6,1.3,2.2*3F
$GPGGA,210651.000,3306.6958,S,06418.0823,W,1,08,1.3,431.7,M,21.4,M,,0000*58
$GPGSV,3,1,10,20,75,063,10,26,60,305,13,10,54,357,15,16,53,245,20*7D
$GPGSV,3,3,10,31,01,330,,08,00,236,*74
$GPGGA,210652.000,3306.6957,S,06418.0821,W,1,08,1.3,431.8,M,21.4,M,,0000*59
$GPRMC,210652.000,A,3306.6957,S,06418.0821,W,0.69,301.99,021218,,,A*6D
$GPGSA,A,3,20,26,10,16,21,27,15,,,,,,2.5,1.4,2.1*31
$GPGGA,210654.000,3306.6955,S,06418.0819,W,1,06,1.9,431.7,M,21.4,M,,0000*5D
$GPRMC,210654.000,A,3306.6955,S,06418.0819,W,0.26,301.99,021218,,,A*69
$GPGSA,A,3,20,26,10,16,21,27,,,,,,,4.6,1.9,4.2*38
$GPGGA,210656.000,3306.6958,S,06418.0814,W,1,05,2.6,431.7,M,21.4,M,,0000*50
$GPGSV,3,1,10,20,75,063,12,26,60,305,17,10,54,357,17,16,53,245,19*73
$GPGSV,3,3,10,31,01,330,,08,00,236,*74
$GPGGA,210657.000,3306.6957,S,06418.0810,W,1,04,6.7,431.7,M,21.4,M,,0000*5E
$GPRMC,210657.000,A,3306.6957,S,06418.0810,W,1.06,301.99,021218,,,A*62
$GPGSA,A,3,20,26,10,16,21,27,29,15,,,,,2.2,1.3,1.8*30
$GPGGA,210659.000,3306.6953,S,06418.0809,W,1,08,1.3,431.9,M,21.4,M,,0000*5D
$GPRMC,210659.000,A,3306.6953,S,06418.0809,W,0.32,301.99,021218,,,A*66
$GPGSA,A,3,20,26,10,16,21,27,29,15,,,,,2.2,1.3,1.8*30
$GPGGA,210701.000,3306.6955,S,06418.0813,W,1,08,1.3,432.5,M,21.4,M,,0000*53
$GPGSV,3,1,10,20,75,063,37,26,60,305,37,10,54,357,37,16,53,245,40*78
$GPGSV,3,3,10,31,01,330,,08,00,236,*74
$GPGGA,210702.000,3306.6955,S,06418.0813,W,1,08,1.3,432.3,M,21.4,M,,0000*56
$GPRMC,210702.000,A,3306.6955,S,06418.0813,W,0.01,301.99,021218,,,A*64
$GPGSA,A,3,20,26,10,16,21,27,29,,,,,,2.3,1.3,1.9*34
$GPGGA,210704.000,3306.6954,S,06418.0816,W,1,07,1.3,432.3,M,21.4,M,,0000*5B
$GPRMC,210704.000,A,3306.6954,S,06418.0816,W,0.19,301.99,021218,,,A*6F
$GPGSA,A,3,20,26,10,16,21,27,29,,,,,,2.3,1.3,1.9*34
$GPGGA,210706.000,3306.6956,S,06418.0822,W,1,07,1.3,432.2,M,21.4,M,,0000*5D
$GPGSV,3,1,10,20,75,063,37,26,60,305,37,10,54,357,40,16,53,245,39*76
$GPGSV,3,3,10,31,01,330,,08,00,236,*74
$GPGGA,210707.000,3306.6957,S,06418.0822,W,1,07,1.3,432.2,M,21.4,M,,0000*5D
$GPRMC,210707.000,A,3306.6957,S,06418.0822,W,0.00,301.99,021218,,,A*60
$GPGSA,A,3,20,26,10,16,21,27,29,,,,,,2.3,1.3,1.9*34
$GPGGA,210709.000,3306.6957,S,06418.0822,W,1,07,1.3,432.2,M,21.4,M,,0000*53
$GPRMC,210709.000,A,3306.6957,S,06418.0822,W,0.00,301.99,021218,,,A*6E
$GPGSA,A,3,20,26,10,16,21,27,29,,,,,,2.3,1.3,1.9*34
$GPGGA,210711.000,3306.6957,S,06418.0822,W,1,07,1.3,432.2,M,21.4,M,,0000*5A
$GPGSV,3,1,10,20,75,063,37,26,60,305,37,10,54,357,40,16,53,245,40*78
$GPGSV,3,3,10,31,01,330,,08,00,236,*74
$GPGGA,210712.000,3306.6957,S,06418.0822,W,1,07,1.3,432.2,M,21.4,M,,0000*59
$GPRMC,210712.000,A,3306.6957,S,06418.0822,W,0.00,301.99,021218,,,A*64
$GPGSA,A,3,20,26,10,16,21,27,29,,,,,,2.3,1.3,1.9*34
$GPGGA,210714.000,3306.6957,S,06418.0822,W,1,08,1.3,432.2,M,21.4,M,,0000*50
$GPRMC,210714.000,A,3306.6957,S,06418.0822,W,0.00,301.99,021218,,,A*62
$GPGSA,A,3,20,26,10,16,21,27,29,15,,,,,2.2,1.3,1.8*30
$GPGGA,210716.000,3306.6957,S,06418.0823,W,1,08,1.3,432.2,M,21.4,M,,0000*53
$GPGSV,3,1,10,20,75,063,36,26,60,305,37,10,54,357,40,16,53,245,40*79
$GPGSV,3,3,10,31,01,330,,08,00,236,*74
$GPGGA,210717.000,3306.6957,S,06418.0823,W,1,08,1.3,432.2,M,21.4,M,,0000*52
$GPRMC,210717.000,A,3306.6957,S,06418.0823,W,0.00,301.99,021218,,,A*60
$GPGSA,A,3,20,26,10,16,21,27,29,15,,,,,2.2,1.3,1.8*30
$GPGGA,210719.000,3306.6956,S,06418.0825,W,1,08,1.3,432.1,M,21.4,M,,0000*58
$GPRMC,210719.000,A,3306.6956,S,06418.0825,W,0.01,301.99,021218,,,A*68
$GPGSA,A,3,20,26,10,16,21,27,29,15,,,,,2.2,1.3,1.8*30
$GPGGA,210721.000,3306.6956,S,06418.0825,W,1,08,1.3,432.1,M,21.4,M,,0000*53
$GPGSV,3,1,10,20,75,063,34,26,60,305,37,10,54,357,40,16,53,245,40*7B
$GPGSV,3,3,10,31,01,330,,08,00,236,*74
$GPGGA,210722.000,3306.6958,S,06418.0827,W,1,07,1.3,432.0,M,21.4,M,,0000*52
$GPRMC,210722.000,A,3306.6958,S,06418.0827,W,0.21,301.99,021218,,,A*6E
$GPGSA,A,3,20,16,21,27,29,15,,,,,,,2.6,1.8,1.8*3A
$GPGGA,210724.000,3306.6959,S,06418.0827,W,1,07,1.4,432.0,M,21.4,M,,0000*52
$GPRMC,210724.000,A,3306.6959,S,06418.0827,W,0.17,301.99,021218,,,A*6C
$GPGSA,A,3,20,26,10,16,21,15,,,,,,,3.1,1.7,2.5*36
$GPGGA,210726.000,3306.6965,S,06418.0823,W,1,07,1.4,432.0,M,21.4,M,,0000*5B
$GPGSV,3,1,10,20,75,063,17,26,60,305,20,10,54,357,23,16,53,245,16*7A
$GPGSV,3,3,10,31,01,330,,08,00,236,*74
$GPGGA,210727.000,3306.6972,S,06418.0819,W,1,07,1.4,432.0,M,21.4,M,,0000*55
$GPRMC,210727.000,A,3306.6972,S,06418.0819,W,1.85,157.94,021218,,,A*6D
$GPGSA,A,3,20,26,10,16,21,27,15,,,,,,2.5,1.4,2.1*31
$GPGGA,210729.000,3306.6982,S,06418.0802,W,1,08,1.3,431.5,M,21.4,M,,0000*50
$GPRMC,210729.000,A,3306.6982,S,06418.0802,W,2.15,126.48,021218,,,A*6B
$GPGSA,A,3,20,26,10,16,21,27,29,15,,,,,2.2,1.3,1.8*30
$GPGGA,210731.000,3306.6992,S,06418.0791,W,1,08,1.3,431.2,M,21.4,M,,0000*5A
$GPGSV,3,1,10,20,75,063,31,26,60,305,32,10,54,357,33,16,53,245,31*79
$GPGSV,3,3,10,31,01,330,,08,00,236,*74
$GPGGA,210732.000,3306.6996,S,06418.0785,W,1,08,1.3,431.1,M,21.4,M,,0000*5B
$GPRMC,210732.000,A,3306.6996,S,06418.0785,W,2.09,124.22,021218,,,A*67
$GPGSA,A,3,20,26,10,16,21,27,29,15,,,,,2.2,1.3,1.8*30
$GPGGA,210734.000,3306.7000,S,06418.0773,W,1,08,1.3,431.0,M,21.4,M,,0000*52
$GPRMC,210734.000,A,3306.7000,S,06418.0773,W,2.23,119.11,021218,,,A*69
$GPGSA,A,3,20,26,10,16,21,27,29,15,,,,,2.2,1.3,1.8*30
$GPGGA,210736.000,3306.7007,S,06418.0758,W,1,08,1.3,430.5,M,21.4,M,,0000*5A
$GPGSV,3,1,10,20,75,063,36,26,60,305,38,10,54,357,36,16,53,245,38*78
$GPGSV,3,3,10,31,01,330,,08,00,236,*74
$GPGGA,210737.000,3306.7011,S,06418.0750,W,1,08,1.3,430.3,M,21.4,M,,0000*52
$GPRMC,210737.000,A,3306.7011,S,06418.0750,W,2.15,120.94,021218,,,A*69
$GPGSA,A,3,20,26,10,16,21,27,29,15,,,,,2.2,1.3,1.8*30
$GPGGA,210739.000,3306.7017,S,06418.0737,W,1,08,1.3,430.1,M,21.4,M,,0000*59
$GPRMC,210739.000,A,3306.7017,S,06418.0737,W,2.31,111.96,021218,,,A*66
$GPGSA,A,3,20,26,10,16,21,27,29,15,,,,,2.2,1.3,1.8*30
$GPGGA,210741.000,3306.7020,S,06418.0724,W,1,07,1.6,430.0,M,21.4,M,,0000*5B
$GPGSV,3,1,10,20,75,063,32,26,60,305,31,10,54,357,36,16,53,245,32*7F
$GPGSV,3,3,10,31,01,330,,08,00,236,*74
$GPGGA,210742.000,3306.7021,S,06418.0717,W,1,07,1.6,430.0,M,21.4,M,,0000*59
$GPRMC,210742.000,A,3306.7021,S,06418.0717,W,2.11,102.84,021218,,,A*6E
$GPGSA,A,3,20,26,10,16,21,27,29,15,,,,,2.2,1.3,1.8*30
$GPGGA,210744.000,3306.7024,S,06418.0704,W,1,08,1.3,429.9,M,21.4,M,,0000*53
$GPRMC,210744.000,A,3306.7024,S,06418.0704,W,2.22,106.88,021218,,,A*67
$GPGSA,A,3,20,26,10,16,21,27,29,15,,,,,2.2,1.3,1.8*30
$GPGGA,210746.000,3306.7027,S,06418.0689,W,1,08,1.3,429.8,M,21.4,M,,0000*57
$GPGSV,3,1,10,20,75,063,32,26,60,305,32,10,54,357,34,16,53,245,32*7E
$GPGSV,3,3,10,31,01,330,14,08,00,236,*71
$GPGGA,210747.000,3306.7028,S,06418.0683,W,1,08,1.3,429.6,M,21.4,M,,0000*5D
$GPRMC,210747.000,A,3306.7028,S,06418.0683,W,2.02,104.07,021218,,,A*61
$GPGSA,A,3,20,26,10,16,21,27,29,15,,,,,2.2,1.3,1.8*30
$GPGGA,210749.000,3306.7031,S,06418.0670,W,1,08,1.3,429.6,M,21.4,M,,0000*57
$GPRMC,210749.000,A,3306.7031,S,06418.0670,W,2.22,105.59,021218,,,A*63
$GPGSA,A,3,20,26,10,16,21,27,29,15,,,,,2.2,1.3,1.8*30
$GPGGA,210751.000,3306.7035,S,06418.0656,W,1,08,1.3,429.6,M,21.4,M,,0000*5E
$GPGSV,3,1,10,20,75,063,31,26,60,305,32,10,54,357,35,16,53,245,32*7C
$GPGSV,3,3,10,31,01,330,15,08,00,236,*70
$GPGGA,210752.000,3306.7036,S,06418.0650,W,1,08,1.3,429.5,M,21.4,M,,0000*5B
$GPRMC,210752.000,A,3306.7036,S,06418.0650,W,2.10,106.02,021218,,,A*60
$GPGSA,A,3,20,26,10,16,21,27,29,15,,,,,2.2,1.3,1.8*30
$GPGGA,210754.000,3306.7037,S,06418.0636,W,1,08,1.3,429.4,M,21.4,M,,0000*5D
$GPRMC,210754.000,A,3306.7037,S,06418.0636,W,2.48,102.12,021218,,,A*6F
$GPGSA,A,3,20,26,10,16,21,27,29,15,,,,,2.2,1.3,1.8*30
$GPGGA,210756.000,3306.7039,S,06418.0620,W,1,08,1.3,429.2,M,21.4,M,,0000*50
$GPGSV,3,1,10,20,75,063,34,26,60,305,36,10,54,357,36,16,53,245,36*7A
$GPGSV,3,3,10,31,01,330,,08,00,236,*74
$GPGGA,210757.000,3306.7040,S,06418.0613,W,1,08,1.3,429.0,M,21.4,M,,0000*5D
$GPRMC,210757.000,A,3306.7040,S,06418.0613,W,2.16,104.93,021218,,,A*6F
$GPGSA,A,3,20,26,10,16,21,27,29,15,,,,,2.2,1.3,1.8*30
$GPGGA,210759.000,3306.7043,S,06418.0599,W,1,08,1.3,428.9,M,21.4,M,,0000*59
$GPRMC,210759.000,A,3306.7043,S,06418.0599,W,2.39,101.99,021218,,,A*61
$GPGSA,A,3,20,26,10,16,21,27,29,15,,,,,2.2,1.3,1.8*30
$GPGGA,210801.000,3306.7045,S,06418.0585,W,1,08,1.3,428.6,M,21.4,M,,0000*5F
$GPGSV,3,1,10,20,75,063,35,26,60,305,40,10,54,357,41,16,53,245,39*75
$GPGSV,3,3,10,31,01,330,,08,00,236,*74
$GPGGA,210802.000,3306.7046,S,06418.0578,W,1,08,1.3,428.5,M,21.4,M,,0000*5E
$GPRMC,210802.000,A,3306.7046,S,06418.0578,W,2.51,102.52,021218,,,A*60
$GPGSA,A,3,20,26,10,16,21,27,29,15,,,,,2.2,1.3,1.8*30
$GPGGA,210804.000,3306.7048,S,06418.0562,W,1,08,1.3,428.3,M,21.4,M,,0000*5B
$GPRMC,210804.000,A,3306.7048,S,06418.0562,W,2.37,100.95,021218,,,A*6A
$GPGSA,A,3,20,26,10,16,21,27,29,15,,,,,2.2,1.3,1.8*30
$GPGGA,210806.000,3306.7050,S,06418.0549,W,1,08,1.3,428.1,M,21.4,M,,0000*5B
$GPGSV,3,1,10,20,75,063,34,26,60,305,35,10,54,357,36,16,53,245,34*7B
$GPGSV,3,3,10,31,01,330,,08,00,236,*74
$GPGGA,210807.000,3306.7051,S,06418.0542,W,1,08,1.3,428.0,M,21.4,M,,0000*51
$GPRMC,210807.000,A,3306.7051,S,06418.0542,W,2.42,102.96,021218,,,A*60
$GPGSA,A,3,20,26,10,16,21,27,29,15,,,,,2.2,1.3,1.8*30
$GPGGA,210809.000,3306.7054,S,06418.0526,W,1,08,1.3,427.9,M,21.4,M,,0000*5E
$GPRMC,210809.000,A,3306.7054,S,06418.0526,W,2.24,102.95,021218,,,A*6A
$GPGSA,A,3,20,26,10,16,21,27,29,15,,,,,2.2,1.3,1.8*30
$GPGGA,210811.000,3306.7056,S,06418.0511,W,1,08,1.3,428.0,M,21.4,M,,0000*57
$GPGSV,3,1,10,20,75,063,34,26,60,305,36,10,54,357,37,16,53,245,38*75
$GPGSV,3,3,10,31,01,330,,08,00,236,*74
$GPGGA,210812.000,3306.7057,S,06418.0504,W,1,08,1.3,428.1,M,21.4,M,,0000*50
$GPRMC,210812.000,A,3306.7057,S,06418.0504,W,2.22,96.33,021218,,,A*55
$GPGSA,A,3,20,26,10,16,21,27,29,15,,,,,2.2,1.3,1.8*30
$GPGGA,210814.000,3306.7059,S,06418.0490,W,1,08,1.3,428.1,M,21.4,M,,0000*54
$GPRMC,210814.000,A,3306.7059,S,06418.0490,W,2.38,102.08,021218,,,A*6E
$GPGSA,A,3,20,26,10,16,21,27,29,15,,,,,2.2,1.3,1.8*30
$GPGGA,210816.000,3306.7063,S,06418.0475,W,1,08,1.3,428.1,M,21.4,M,,0000*54
$GPGSV,3,1,10,20,75,063,28,26,60,305,29,10,54,357,32,16,53,245,29*73
$GPGSV,3,3,10,31,01,330,,08,00,236,*74
$GPGGA,210817.000,3306.7065,S,06418.0467,W,1,08,1.3,428.1,M,21.4,M,,0000*50
$GPRMC,210817.000,A,3306.7065,S,06418.0467,W,2.67,102.38,021218,,,A*63
$GPGSA,A,3,20,26,10,16,21,27,29,15,,,,,2.2,1.3,1.8*30
$GPGGA,210819.000,3306.7067,S,06418.0453,W,1,08,1.3,428.0,M,21.4,M,,0000*5A
$GPRMC,210819.000,A,3306.7067,S,06418.0453,W,2.17,101.89,021218,,,A*66
$GPGSA,A,3,20,26,10,16,21,27,29,15,,,,,2.2,1.3,1.8*30
$GPGGA,210821.000,3306.7071,S,06418.0444,W,1,08,1.3,427.8,M,21.4,M,,0000*57
$GPGSV,3,1,10,20,75,063,30,26,60,305,35,10,54,357,34,16,53,245,34*7D
$GPGSV,3,3,10,31,01,330,13,08,00,236,*76
$GPGGA,210822.000,3306.7076,S,06418.0443,W,1,08,1.3,427.8,M,21.4,M,,0000*54
$GPRMC,210822.000,A,3306.7076,S,06418.0443,W,1.82,157.08,021218,,,A*6A
$GPGSA,A,3,20,26,10,16,21,27,29,15,,,,,2.2,1.3,1.8*30
$GPGGA,210824.000,3306.7087,S,06418.0445,W,1,08,1.3,427.7,M,21.4,M,,0000*55
$GPRMC,210824.000,A,3306.7087,S,06418.0445,W,1.85,185.78,021218,,,A*6B
$GPGSA,A,3,20,26,10,16,21,27,29,15,,,,,2.2,1.3,1.8*30
$GPGGA,210826.000,3306.7096,S,06418.0452,W,1,08,1.3,427.5,M,21.4,M,,0000*53
$GPGSV,3,1,10,20,75,063,31,26,60,305,34,10,54,357,34,16,53,245,34*7D
$GPGSV,3,3,10,31,01,330,17,08,00,236,*72
$GPGGA,210827.000,3306.7099,S,06418.0457,W,1,08,1.3,427.4,M,21.4,M,,0000*59
$GPRMC,210827.000,A,3306.7099,S,06418.0457,W,1.78,225.43,021218,,,A*67
$GPGSA,A,3,20,26,10,16,21,27,29,15,,,,,2.2,1.3,1.8*30
$GPGGA,210829.000,3306.7100,S,06418.0470,W,1,08,1.3,427.3,M,21.4,M,,0000*54
$GPRMC,210829.000,A,3306.7100,S,06418.0470,W,2.14,265.33,021218,,,A*67
$GPGSA,A,3,20,26,10,16,21,27,29,15,,,,,2.2,1.3,1.8*30
$GPGGA,210831.000,3306.7098,S,06418.0485,W,1,08,1.3,427.4,M,21.4,M,,0000*50
$GPGSV,3,1,10,20,75,063,30,26,60,305,28,10,54,357,31,16,53,245,31*71
$GPGSV,3,3,10,31,01,330,,08,00,236,*74
$GPGGA,210832.000,3306.7098,S,06418.0492,W,1,06,1.7,427.4,M,21.4,M,,0000*5F
$GPRMC,210832.000,A,3306.7098,S,06418.0492,W,2.01,275.83,021218,,,A*6F
$GPGSA,A,3,20,26,10,16,21,27,29,15,,,,,2.2,1.3,1.8*30
$GPGGA,210834.000,3306.7095,S,06418.0505,W,1,08,1.3,427.4,M,21.4,M,,0000*51
$GPRMC,210834.000,A,3306.7095,S,06418.0505,W,1.86,284.51,021218,,,A*66
$GPGSA,A,3,20,26,10,16,21,27,29,15,,,,,2.2,1.3,1.8*30
$GPGGA,210836.000,3306.7093,S,06418.0517,W,1,08,1.3,427.3,M,21.4,M,,0000*51
$GPGSV,3,1,10,20,75,063,32,26,60,305,34,10,54,357,34,16,53,245,36*7C
$GPGSV,3,3,10,31,01,330,15,08,00,236,*70
$GPGGA,210837.000,3306.7092,S,06418.0523,W,1,08,1.3,427.1,M,21.4,M,,0000*54
$GPRMC,210837.000,A,3306.7092,S,06418.0523,W,1.85,280.86,021218,,,A*6B
$GPGSA,A,3,20,26,10,16,21,27,29,15,,,,,2.2,1.3,1.8*30
$GPGGA,210839.000,3306.7091,S,06418.0537,W,1,08,1.3,427.0,M,21.4,M,,0000*5D
$GPRMC,210839.000,A,3306.7091,S,06418.0537,W,1.85,284.85,021218,,,A*64
$GPGSA,A,3,20,26,10,16,21,27,29,15,,,,,2.2,1.3,1.8*30
$GPGGA,210841.000,3306.7088,S,06418.0550,W,1,08,1.3,427.1,M,21.4,M,,0000*5A
$GPGSV,3,1,10,20,75,069,35,26,59,307,37,10,56,358,38,16,54,247,34*7C
$GPGSV,3,3,10,08,01,235,,31,00,331,*76
$GPGGA,210842.000,3306.7087,S,06418.0557,W,1,08,1.3,427.1,M,21.4,M,,0000*51
$GPRMC,210842.000,A,3306.7087,S,06418.0557,W,2.01,285.46,021218,,,A*68
$GPGSA,A,3,20,26,10,16,21,27,29,15,,,,,2.2,1.3,1.8*30
$GPGGA,210844.000,3306.7085,S,06418.0570,W,1,08,1.3,427.1,M,21.4,M,,0000*50
$GPRMC,210844.000,A,3306.7085,S,06418.0570,W,1.89,283.67,021218,,,A*6F
$GPGSA,A,3,20,26,10,16,21,27,29,15,,,,,2.2,1.3,1.8*30
$GPGGA,210846.000,3306.7082,S,06418.0582,W,1,08,1.3,427.2,M,21.4,M,,0000*5B
$GPGSV,3,1,10,20,75,069,30,26,59,307,31,10,56,358,31,16,54,247,31*73
$GPGSV,3,3,10,08,01,235,,31,00,331,*76
$GPGGA,210847.000,3306.7080,S,06418.0588,W,1,08,1.3,427.3,M,21.4,M,,0000*53
$GPRMC,210847.000,A,3306.7080,S,06418.0588,W,1.83,285.29,021218,,,A*68
$GPGSA,A,3,20,26,10,16,21,27,29,15,,,,,2.2,1.3,1.8*30
$GPGGA,210849.000,3306.7079,S,06418.0602,W,1,08,1.3,427.3,M,21.4,M,,0000*5A
$GPRMC,210849.000,A,3306.7079,S,06418.0602,W,2.06,279.74,021218,,,A*64
$GPGSA,A,3,20,26,10,16,21,27,29,15,,,,,2.2,1.3,1.8*30
$GPGGA,210851.000,3306.7077,S,06418.0615,W,1,08,1.3,427.5,M,21.4,M,,0000*5D
$GPGSV,3,1,10,20,75,069,30,26,59,307,31,10,56,358,32,16,54,247,31*70
$GPGSV,3,3,10,31,00,331,16,08,01,235,*71
$GPGGA,210852.000,3306.7076,S,06418.0622,W,1,08,1.3,427.6,M,21.4,M,,0000*58
$GPRMC,210852.000,A,3306.7076,S,06418.0622,W,1.89,280.15,021218,,,A*66
$GPGSA,A,3,20,26,10,16,21,27,29,15,,,,,2.2,1.3,1.8*30
$GPGGA,210854.000,3306.7073,S,06418.0636,W,1,08,1.3,427.7,M,21.4,M,,0000*5F
$GPRMC,210854.000,A,3306.7073,S,06418.0636,W,2.04,285.78,021218,,,A*68
$GPGSA,A,3,20,26,10,16,21,27,29,15,,,,,2.2,1.3,1.8*30
$GPGGA,210856.000,3306.7069,S,06418.0649,W,1,08,1.3,427.7,M,21.4,M,,0000*5E
$GPGSV,3,1,10,20,75,069,31,26,59,307,34,10,56,358,32,16,54,247,34*71
$GPGSV,3,3,10,31,00,331,18,08,01,235,*7F
$GPGGA,210857.000,3306.7067,S,06418.0656,W,1,08,1.3,427.8,M,21.4,M,,0000*50
$GPRMC,210857.000,A,3306.7067,S,06418.0656,W,2.19,288.08,021218,,,A*6E
$GPGSA,A,3,20,26,10,16,21,27,29,15,,,,,2.2,1.3,1.8*30
$GPGGA,210859.000,3306.7064,S,06418.0669,W,1,08,1.3,428.0,M,21.4,M,,0000*56
$GPRMC,210859.000,A,3306.7064,S,06418.0669,W,1.85,288.71,021218,,,A*67
$GPGSA,A,3,20,26,10,16,21,27,29,15,,,,,2.2,1.3,1.8*30
$GPGGA,210901.000,3306.7061,S,06418.0681,W,1,08,1.3,428.0,M,21.4,M,,0000*59
$GPGSV,3,1,10,20,75,069,29,26,59,307,28,10,56,358,32,16,54,247,33*72
$GPGSV,3,3,10,08,01,235,16,31,00,331,15*75
$GPGGA,210902.000,3306.7059,S,06418.0687,W,1,08,1.3,428.1,M,21.4,M,,0000*56
$GPRMC,210902.000,A,3306.7059,S,06418.0687,W,1.88,290.84,021218,,,A*68
$GPGSA,A,3,20,26,10,16,21,27,29,15,,,,,2.2,1.3,1.8*30
$GPGGA,210904.000,3306.7054,S,06418.0698,W,1,08,1.3,428.2,M,21.4,M,,0000*50
$GPRMC,210904.000,A,3306.7054,S,06418.0698,W,2.02,298.23,021218,,,A*69
$GPGSA,A,3,20,26,10,16,21,27,29,15,,,,,2.2,1.3,1.8*30
$GPGGA,210906.000,3306.7049,S,06418.0710,W,1,08,1.3,428.4,M,21.4,M,,0000*59
$GPGSV,3,1,10,20,75,069,30,26,59,307,30,10,56,358,32,16,54,247,33*73
$GPGSV,3,3,10,08,01,235,13,31,00,331,*74
$GPGGA,210907.000,3306.7046,S,06418.0716,W,1,08,1.3,428.5,M,21.4,M,,0000*50
$GPRMC,210907.000,A,3306.7046,S,06418.0716,W,2.22,293.57,021218,,,A*64
$GPGSA,A,3,20,26,10,16,21,27,29,15,,,,,2.2,1.3,1.8*30
$GPGGA,210909.000,3306.7042,S,06418.0728,W,1,08,1.3,428.7,M,21.4,M,,0000*55
$GPRMC,210909.000,A,3306.7042,S,06418.0728,W,2.10,290.69,021218,,,A*6C
$GPGSA,A,3,20,26,10,16,21,27,29,15,,,,,2.2,1.3,1.8*30
$GPGGA,210911.000,3306.7037,S,06418.0742,W,1,08,1.3,428.7,M,21.4,M,,0000*52
$GPGSV,3,1,10,20,75,069,29,26,59,307,30,10,56,358,29,16,54,247,32*70
$GPGSV,3,3,10,08,01,235,11,31,00,331,*76
$GPGGA,210912.000,3306.7034,S,06418.0747,W,1,08,1.3,428.8,M,21.4,M,,0000*58
$GPRMC,210912.000,A,3306.7034,S,06418.0747,W,2.11,303.39,021218,,,A*61
$GPGSA,A,3,20,26,10,16,21,27,29,15,,,,,2.2,1.3,1.8*30
$GPGGA,210914.000,3306.7027,S,06418.0759,W,1,08,1.3,428.8,M,21.4,M,,0000*53
$GPRMC,210914.000,A,3306.7027,S,06418.0759,W,2.26,304.83,021218,,,A*68
$GPGSA,A,3,20,26,10,16,21,27,29,15,,,,,2.2,1.3,1.8*30
$GPGGA,210916.000,3306.7021,S,06418.0771,W,1,08,1.3,428.7,M,21.4,M,,0000*52
$GPGSV,3,1,10,20,75,069,28,26,59,307,29,10,56,358,29,16,54,247,31*7A
$GPGSV,3,3,10,08,01,235,,31,00,331,*76
$GPGGA,210917.000,3306.7018,S,06418.0777,W,1,08,1.3,428.6,M,21.4,M,,0000*5E
$GPRMC,210917.000,A,3306.7018,S,06418.0777,W,2.34,302.56,021218,,,A*66
$GPGSA,A,3,20,26,10,16,21,27,29,15,,,,,2.2,1.3,1.8*30
$GPGGA,210919.000,3306.7010,S,06418.0789,W,1,08,1.3,428.5,M,21.4,M,,0000*5A
$GPRMC,210919.000,A,3306.7010,S,06418.0789,W,2.34,306.41,021218,,,A*63
$GPGSA,A,3,20,26,10,16,21,27,29,15,,,,,2.2,1.3,1.8*30
$GPGGA,210921.000,3306.7006,S,06418.0800,W,1,08,1.3,428.0,M,21.4,M,,0000*5D
$GPGSV,3,1,10,20,75,069,37,26,59,307,38,10,56,358,39,16,54,247,40*73
$GPGSV,3,3,10,31,00,331,14,08,01,235,*73
$GPGGA,210922.000,3306.7006,S,06418.0807,W,1,08,1.3,427.9,M,21.4,M,,0000*5F
$GPRMC,210922.000,A,3306.7006,S,06418.0807,W,2.05,286.42,021218,,,A*6D
$GPGSA,A,3,20,26,10,16,21,27,15,,,,,,2.5,1.4,2.1*31
$GPGGA,210924.000,3306.7003,S,06418.0819,W,1,08,1.3,428.0,M,21.4,M,,0000*55
$GPRMC,210924.000,A,3306.7003,S,06418.0819,W,1.81,286.54,021218,,,A*69
$GPGSA,A,3,20,26,10,16,21,27,29,15,,,,,2.2,1.3,1.8*30
$GPGGA,210926.000,3306.6997,S,06418.0828,W,1,07,1.4,428.1,M,21.4,M,,0000*59
$GPGSV,3,1,10,20,75,069,26,26,59,307,34,10,56,358,32,16,54,247,34*77
$GPGSV,3,3,10,08,01,235,,31,00,331,*76
$GPGGA,210927.000,3306.6993,S,06418.0832,W,1,08,1.3,428.1,M,21.4,M,,0000*5F
$GPRMC,210927.000,A,3306.6993,S,06418.0832,W,1.86,302.80,021218,,,A*61
$GPGSA,A,3,20,26,10,16,21,27,29,15,,,,,2.2,1.3,1.8*30
$GPGGA,210929.000,3306.6982,S,06418.0840,W,1,08,1.3,427.1,M,21.4,M,,0000*5B
$GPRMC,210929.000,A,3306.6982,S,06418.0840,W,1.68,311.10,021218,,,A*61
$GPGSA,A,3,20,26,10,16,21,27,29,15,,,,,2.2,1.3,1.8*30
$GPGGA,210931.000,3306.6978,S,06418.0849,W,1,08,1.3,427.1,M,21.4,M,,0000*5E
$GPGSV,3,1,10,20,75,069,36,26,59,307,36,10,56,358,37,16,54,247,37*72
$GPGSV,3,3,10,08,01,235,,31,00,331,*76
$GPGGA,210932.000,3306.6977,S,06418.0852,W,1,08,1.3,427.1,M,21.4,M,,0000*58
$GPRMC,210932.000,A,3306.6977,S,06418.0852,W,0.71,307.34,021218,,,A*6A
$GPGSA,A,3,20,26,10,16,21,27,29,15,,,,,2.2,1.3,1.8*30
$GPGGA,210934.000,3306.6980,S,06418.0857,W,1,08,1.3,426.8,M,21.4,M,,0000*5B
$GPRMC,210934.000,A,3306.6980,S,06418.0857,W,0.76,307.34,021218,,,A*66
$GPGSA,A,3,20,26,10,16,21,27,29,15,,,,,2.2,1.3,1.8*30
$GPGGA,210936.000,3306.6985,S,06418.0860,W,1,08,1.3,426.5,M,21.4,M,,0000*55
$GPGSV,3,1,10,20,75,069,33,26,59,307,29,10,56,358,36,16,54,247,33*7C
$GPGSV,3,3,10,08,01,235,,31,00,331,*76
$GPGGA,210937.000,3306.6987,S,06418.0861,W,1,08,1.3,426.3,M,21.4,M,,0000*51
$GPRMC,210937.000,A,3306.6987,S,06418.0861,W,0.76,307.34,021218,,,A*67
$GPGSA,A,3,20,26,10,16,21,27,29,15,,,,,2.2,1.3,1.8*30
$GPGGA,210939.000,3306.6990,S,06418.0858,W,1,08,1.3,426.1,M,21.4,M,,0000*51
$GPRMC,210939.000,A,3306.6990,S,06418.0858,W,0.50,307.34,021218,,,A*61
$GPGSA,A,3,20,26,10,16,21,27,29,15,,,,,2.2,1.3,1.8*30
$GPGGA,210941.000,3306.6994,S,06418.0854,W,1,08,1.3,425.9,M,21.4,M,,0000*5D
$GPGSV,3,1,10,20,75,069,34,26,59,307,35,10,56,358,38,16,54,247,33*78
$GPGSV,3,3,10,31,00,331,14,08,01,235,*73
$GPGGA,210942.000,3306.6996,S,06418.0852,W,1,08,1.3,425.8,M,21.4,M,,0000*5B
$GPRMC,210942.000,A,3306.6996,S,06418.0852,W,0.82,307.34,021218,,,A*6E
$GPGSA,A,3,20,26,10,16,21,27,29,15,,,,,2.2,1.3,1.8*30
$GPGGA,210944.000,3306.7000,S,06418.0848,W,1,08,1.3,425.8,M,21.4,M,,0000*51
$GPRMC,210944.000,A,3306.7000,S,06418.0848,W,0.64,182.23,021218,,,A*65
$GPGSA,A,3,20,26,10,16,21,27,29,15,,,,,2.2,1.3,1.8*30
$GPGGA,210946.000,3306.7002,S,06418.0846,W,1,08,1.3,425.7,M,21.4,M,,0000*50
$GPGSV,3,1,10,20,75,069,33,26,59,307,34,10,56,358,36,16,54,247,39*7A
$GPGSV,3,3,10,08,01,235,,31,00,331,*76
$GPGGA,210947.000,3306.7003,S,06418.0844,W,1,08,1.3,425.6,M,21.4,M,,0000*53
$GPRMC,210947.000,A,3306.7003,S,06418.0844,W,0.65,182.23,021218,,,A*68
$GPGSA,A,3,20,26,10,16,21,27,29,15,,,,,2.2,1.3,1.8*30
$GPGGA,210949.000,3306.7006,S,06418.0842,W,1,08,1.3,425.6,M,21.4,M,,0000*5E
$GPRMC,210949.000,A,3306.7006,S,06418.0842,W,0.66,182.23,021218,,,A*66
$GPGSA,A,3,20,26,10,16,21,27,29,15,,,,,2.2,1.3,1.8*30
$GPGGA,210951.000,3306.7009,S,06418.0838,W,1,08,1.3,425.7,M,21.4,M,,0000*54
$GPGSV,3,1,10,20,75,069,32,26,59,307,27,10,56,358,33,16,54,247,35*70
$GPGSV,3,3,10,31,00,331,15,08,01,235,*72
$GPGGA,210952.000,3306.7010,S,06418.0837,W,1,08,1.3,425.7,M,21.4,M,,0000*50
$GPRMC,210952.000,A,3306.7010,S,06418.0837,W,0.72,182.23,021218,,,A*6C
$GPGSA,A,3,20,26,10,16,21,27,29,15,,,,,2.2,1.3,1.8*30
$GPGGA,210954.000,3306.7011,S,06418.0837,W,1,08,1.3,425.7,M,21.4,M,,0000*57
$GPRMC,210954.000,A,3306.7011,S,06418.0837,W,0.67,182.23,021218,,,A*6F
$GPGSA,A,3,20,26,10,16,21,27,29,15,,,,,2.2,1.3,1.8*30
$GPGGA,210956.000,3306.7013,S,06418.0835,W,1,08,1.3,425.6,M,21.4,M,,0000*54
$GPGSV,3,1,10,20,75,069,32,26,59,307,29,10,56,358,32,16,54,247,33*79
$GPGSV,3,3,10,08,01,235,,31,00,331,*76
$GPGGA,210957.000,3306.7014,S,06418.0835,W,1,08,1.3,425.5,M,21.4,M,,0000*51
$GPRMC,210957.000,A,3306.7014,S,06418.0835,W,0.34,182.23,021218,,,A*6D
$GPGSA,A,3,20,26,10,16,21,27,29,15,,,,,2.2,1.3,1.8*30
$GPGGA,210959.000,3306.7015,S,06418.0835,W,1,08,1.3,425.4,M,21.4,M,,0000*5F
$GPRMC,210959.000,A,3306.7015,S,06418.0835,W,0.09,182.23,021218,,,A*6C
$GPGSA,A,3,20,26,10,16,21,27,29,15,,,,,2.2,1.3,1.8*30
$GPGGA,211001.000,3306.7016,S,06418.0834,W,1,08,1.3,425.4,M,21.4,M,,0000*58
$GPGSV,3,1,10,20,75,069,24,26,59,307,20,10,56,358,28,16,54,247,24*7A
$GPGSV,3,3,10,08,01,235,,31,00,331,*76
$GPGGA,211002.000,3306.7016,S,06418.0831,W,1,08,1.3,425.4,M,21.4,M,,0000*5E
$GPRMC,211002.000,A,3306.7016,S,06418.0831,W,0.57,182.23,021218,,,A*66
$GPGSA,A,3,20,26,10,16,21,27,29,15,,,,,2.2,1.3,1.8*30
$GPGGA,211004.000,3306.7017,S,06418.0827,W,1,08,1.3,425.4,M,21.4,M,,0000*5E
$GPRMC,211004.000,A,3306.7017,S,06418.0827,W,0.51,182.23,021218,,,A*60
$GPGSA,A,3,20,26,10,16,21,27,29,15,,,,,2.2,1.3,1.8*30
$GPGGA,211006.000,3306.7019,S,06418.0824,W,1,08,1.3,425.6,M,21.4,M,,0000*53
$GPGSV,3,1,10,20,75,069,28,26,59,307,25,10,56,358,31,16,54,247,29*76
$GPGSV,3,3,10,08,01,235,,31,00,331,*76
$GPGGA,211007.000,3306.7019,S,06418.0823,W,1,07,1.4,425.6,M,21.4,M,,0000*5D
$GPRMC,211007.000,A,3306.7019,S,06418.0823,W,0.48,182.23,021218,,,A*61
$GPGSA,A,3,20,26,10,16,21,27,15,,,,,,2.5,1.4,2.1*31
$GPGGA,211009.000,3306.7019,S,06418.0821,W,1,07,1.4,425.7,M,21.4,M,,0000*50
$GPRMC,211009.000,A,3306.7019,S,06418.0821,W,0.31,182.23,021218,,,A*63
$GPGSA,A,3,20,26,10,16,21,27,15,,,,,,2.5,1.4,2.1*31
$GPGGA,211011.000,3306.7022,S,06418.0823,W,1,07,1.4,425.7,M,21.4,M,,0000*53
$GPGSV,3,1,10,20,75,069,22,26,59,307,25,10,56,358,30,16,54,247,24*70
$GPGSV,3,3,10,31,00,331,14,08,01,235,*73
$GPGGA,211012.000,3306.7024,S,06418.0823,W,1,07,1.4,425.6,M,21.4,M,,0000*57
$GPRMC,211012.000,A,3306.7024,S,06418.0823,W,0.78,182.23,021218,,,A*68
$GPGSA,A,3,20,26,10,16,21,27,29,15,,,,,2.2,1.3,1.8*30
$GPGGA,211014.000,3306.7029,S,06418.0819,W,1,08,1.3,425.7,M,21.4,M,,0000*5C
$GPRMC,211014.000,A,3306.7029,S,06418.0819,W,1.00,182.23,021218,,,A*64
$GPGSA,A,3,20,26,10,16,21,27,29,15,,,,,2.2,1.3,1.8*30
$GPGGA,211016.000,3306.7033,S,06418.0816,W,1,08,1.3,425.7,M,21.4,M,,0000*5A
$GPGSV,3,1,10,20,75,069,26,26,59,307,28,10,56,358,31,16,54,247,29*75
$GPGSV,3,3,10,08,01,235,,31,00,331,*76
$GPGGA,211017.000,3306.7034,S,06418.0815,W,1,08,1.3,425.8,M,21.4,M,,0000*50
$GPRMC,211017.000,A,3306.7034,S,06418.0815,W,0.57,182.23,021218,,,A*64
$GPGSA,A,3,20,26,10,16,21,27,29,15,,,,,2.2,1.3,1.8*30
$GPGGA,211019.000,3306.7035,S,06418.0812,W,1,08,1.3,425.7,M,21.4,M,,0000*57
$GPRMC,211019.000,A,3306.7035,S,06418.0812,W,0.63,182.23,021218,,,A*6B
$GPGSA,A,3,20,26,10,16,21,27,29,15,,,,,2.2,1.3,1.8*30
$GPGGA,211021.000,3306.7037,S,06418.0808,W,1,08,1.3,425.9,M,21.4,M,,0000*5B
$GPGSV,3,1,10,20,75,069,27,26,59,307,28,10,56,358,31,16,54,247,29*74
$GPGSV,3,3,10,08,01,235,,31,00,331,*76
$GPGGA,211022.000,3306.7038,S,06418.0806,W,1,08,1.3,425.8,M,21.4,M,,0000*58
$GPRMC,211022.000,A,3306.7038,S,06418.0806,W,0.73,182.23,021218,,,A*6A
$GPGSA,A,3,20,26,10,16,21,27,29,15,,,,,2.2,1.3,1.8*30
$GPGGA,211024.000,3306.7044,S,06418.0796,W,1,08,1.3,425.9,M,21.4,M,,0000*52
$GPRMC,211024.000,A,3306.7044,S,06418.0796,W,2.00,137.19,021218,,,A*60
$GPGSA,A,3,20,26,10,16,21,27,29,15,,,,,2.2,1.3,1.8*30
$GPGGA,211026.000,3306.7052,S,06418.0784,W,1,08,1.3,426.0,M,21.4,M,,0000*5E
$GPGSV,3,1,10,20,75,069,28,26,59,307,32,10,56,358,32,16,54,247,30*7B
$GPGSV,3,3,10,08,01,235,,31,00,331,*76
$GPGGA,211027.000,3306.7055,S,06418.0779,W,1,08,1.3,426.0,M,21.4,M,,0000*5A
$GPRMC,211027.000,A,3306.7055,S,06418.0779,W,1.33,129.64,021218,,,A*64
$GPGSA,A,3,20,26,10,16,21,27,29,15,,,,,2.2,1.3,1.8*30
$GPGGA,211029.000,3306.7065,S,06418.0767,W,1,08,1.3,427.3,M,21.4,M,,0000*5A
$GPRMC,211029.000,A,3306.7065,S,06418.0767,W,1.46,126.39,021218,,,A*63
$GPGSA,A,3,20,26,10,16,21,27,29,15,,,,,2.2,1.3,1.8*30
$GPGGA,211031.000,3306.7069,S,06418.0757,W,1,08,1.3,427.9,M,21.4,M,,0000*56
$GPGSV,3,1,10,20,75,069,36,26,59,307,32,10,56,358,39,16,54,247,36*79
$GPGSV,3,3,10,08,01,235,,31,00,331,*76
$GPGGA,211032.000,3306.7071,S,06418.0752,W,1,08,1.3,427.9,M,21.4,M,,0000*59
$GPRMC,211032.000,A,3306.7071,S,06418.0752,W,1.69,113.93,021218,,,A*61
$GPGSA,A,3,20,26,10,16,21,27,29,15,,,,,2.2,1.3,1.8*30
$GPGGA,211034.000,3306.7075,S,06418.0745,W,1,08,1.3,427.9,M,21.4,M,,0000*5D
$GPRMC,211034.000,A,3306.7075,S,06418.0745,W,0.56,119.37,021218,,,A*6C
$GPGSA,A,3,20,26,10,16,21,27,29,15,,,,,2.2,1.3,1.8*30
$GPGGA,211036.000,3306.7076,S,06418.0739,W,1,08,1.3,427.9,M,21.4,M,,0000*57
$GPGSV,3,1,10,20,75,069,35,26,59,307,30,10,56,358,34,16,54,247,33*70
$GPGSV,3,3,10,08,01,235,,31,00,331,*76
$GPGGA,211037.000,3306.7076,S,06418.0736,W,1,08,1.3,427.9,M,21.4,M,,0000*59
$GPRMC,211037.000,A,3306.7076,S,06418.0736,W,1.12,119.37,021218,,,A*69
$GPGSA,A,3,20,26,10,16,21,27,29,15,,,,,2.2,1.3,1.8*30
$GPGGA,211039.000,3306.7079,S,06418.0731,W,1,08,1.3,428.0,M,21.4,M,,0000*59
$GPRMC,211039.000,A,3306.7079,S,06418.0731,W,0.85,119.37,021218,,,A*60
$GPGSA,A,3,20,26,10,16,21,27,29,15,,,,,2.2,1.3,1.8*30
$GPGGA,211041.000,3306.7082,S,06418.0725,W,1,08,1.3,428.0,M,21.4,M,,0000*57
$GPGSV,3,1,10,20,75,069,34,26,59,307,35,10,56,358,38,16,54,247,35*7E
$GPGSV,3,3,10,31,00,331,17,08,01,235,*70
$GPGGA,211042.000,3306.7083,S,06418.0721,W,1,08,1.3,428.1,M,21.4,M,,0000*50
$GPRMC,211042.000,A,3306.7083,S,06418.0721,W,1.21,118.58,021218,,,A*6F
$GPGSA,A,3,20,26,10,16,21,27,29,15,,,,,2.2,1.3,1.8*30
$GPGGA,211044.000,3306.7087,S,06418.0713,W,1,08,1.3,428.2,M,21.4,M,,0000*50
$GPRMC,211044.000,A,3306.7087,S,06418.0713,W,1.09,118.06,021218,,,A*6D
$GPGSA,A,3,20,26,10,16,21,27,29,15,,,,,2.2,1.3,1.8*30
$GPGGA,211046.000,3306.7088,S,06418.0706,W,1,08,1.3,428.2,M,21.4,M,,0000*59
$GPGSV,3,1,10,20,75,069,33,26,59,307,31,10,56,358,37,16,54,247,35*72
$GPGSV,3,3,10,31,00,331,19,08,01,235,*7E
$GPGGA,211047.000,3306.7089,S,06418.0702,W,1,08,1.3,428.2,M,21.4,M,,0000*5D
$GPRMC,211047.000,A,3306.7089,S,06418.0702,W,1.46,108.08,021218,,,A*64
$GPGSA,A,3,20,26,10,16,21,27,29,15,,,,,2.2,1.3,1.8*30
$GPGGA,211049.000,3306.7091,S,06418.0694,W,1,08,1.3,428.0,M,21.4,M,,0000*56
$GPRMC,211049.000,A,3306.7091,S,06418.0694,W,1.22,107.79,021218,,,A*66
$GPGSA,A,3,20,26,10,16,21,27,29,15,,,,,2.2,1.3,1.8*30
$GPGGA,211051.000,3306.7092,S,06418.0693,W,1,08,1.3,427.6,M,21.4,M,,0000*52
$GPGSV,3,1,10,20,75,069,29,26,59,307,29,10,56,358,33,16,54,247,30*71
$GPGSV,3,3,10,08,01,235,,31,00,331,*76
$GPGGA,211052.000,3306.7092,S,06418.0692,W,1,08,1.3,427.5,M,21.4,M,,0000*53
$GPRMC,211052.000,A,3306.7092,S,06418.0692,W,0.57,107.79,021218,,,A*6A
$GPGSA,A,3,20,26,10,16,21,27,29,15,,,,,2.2,1.3,1.8*30
$GPGGA,211054.000,3306.7094,S,06418.0685,W,1,08,1.3,427.5,M,21.4,M,,0000*55
$GPRMC,211054.000,A,3306.7094,S,06418.0685,W,1.20,116.29,021218,,,A*68
$GPGSA,A,3,20,26,10,16,21,27,29,15,,,,,2.2,1.3,1.8*30
$GPGGA,211056.000,3306.7099,S,06418.0679,W,1,08,1.3,427.3,M,21.4,M,,0000*5F
$GPGSV,3,1,10,20,75,069,29,26,59,307,28,10,56,358,33,16,54,247,30*70
$GPGSV,3,3,10,08,01,235,,31,00,331,*76
$GPGGA,211057.000,3306.7101,S,06418.0676,W,1,08,1.3,427.3,M,21.4,M,,0000*51
$GPRMC,211057.000,A,3306.7101,S,06418.0676,W,1.27,121.33,021218,,,A*62
$GPGSA,A,3,20,26,10,16,21,27,29,15,,,,,2.2,1.3,1.8*30
$GPGGA,211059.000,3306.7105,S,06418.0668,W,1,08,1.3,427.1,M,21.4,M,,0000*56
$GPRMC,211059.000,A,3306.7105,S,06418.0668,W,1.85,125.43,021218,,,A*6C
$GPGSA,A,3,20,26,10,16,21,27,29,15,,,,,2.2,1.3,1.8*30
$GPGGA,211101.000,3306.7110,S,06418.0658,W,1,08,1.3,426.7,M,21.4,M,,0000*5A
$GPGSV,3,1,10,20,75,069,29,26,59,307,32,10,56,358,33,16,54,247,31*7A
$GPGSV,3,3,10,08,01,235,,31,00,331,*76
$GPGGA,211102.000,3306.7112,S,06418.0653,W,1,08,1.3,426.6,M,21.4,M,,0000*51
$GPRMC,211102.000,A,3306.7112,S,06418.0653,W,1.77,119.15,021218,,,A*6C
$GPGSA,A,3,20,26,10,16,21,27,29,15,,,,,2.2,1.3,1.8*30
$GPGGA,211104.000,3306.7117,S,06418.0642,W,1,08,1.3,426.5,M,21.4,M,,0000*51
$GPRMC,211104.000,A,3306.7117,S,06418.0642,W,2.24,115.12,021218,,,A*61
$GPGSA,A,3,20,26,10,16,21,27,29,15,,,,,2.2,1.3,1.8*30
$GPGGA,211106.000,3306.7121,S,06418.0628,W,1,08,1.3,426.4,M,21.4,M,,0000*5B
$GPGSV,3,1,10,20,75,069,24,26,59,307,27,10,56,358,32,16,54,247,24*76
$GPGSV,3,3,10,08,01,235,,31,00,331,*76
$GPGGA,211107.000,3306.7122,S,06418.0621,W,1,08,1.3,426.4,M,21.4,M,,0000*50
$GPRMC,211107.000,A,3306.7122,S,06418.0621,W,2.36,110.31,021218,,,A*66
$GPGSA,A,3,20,26,10,16,21,27,29,15,,,,,2.2,1.3,1.8*30
$GPGGA,211109.000,3306.7126,S,06418.0605,W,1,08,1.3,426.4,M,21.4,M,,0000*5C
$GPRMC,211109.000,A,3306.7126,S,06418.0605,W,2.46,106.72,021218,,,A*6D
$GPGSA,A,3,20,26,10,16,21,27,29,15,,,,,2.2,1.3,1.8*30
$GPGGA,211111.000,3306.7125,S,06418.0593,W,1,08,1.3,426.0,M,21.4,M,,0000*5E
$GPGSV,3,1,10,20,75,069,35,26,59,307,37,10,56,358,39,16,54,247,37*7E
$GPGSV,3,3,10,08,01,235,,31,00,331,*76
$GPGGA,211112.000,3306.7125,S,06418.0586,W,1,08,1.3,426.1,M,21.4,M,,0000*58
$GPRMC,211112.000,A,3306.7125,S,06418.0586,W,1.98,95.78,021218,,,A*5D
$GPGSA,A,3,20,26,10,16,21,27,29,15,,,,,2.2,1.3,1.8*30
$GPGGA,211114.000,3306.7129,S,06418.0574,W,1,08,1.3,426.0,M,21.4,M,,0000*5E
$GPRMC,211114.000,A,3306.7129,S,06418.0574,W,2.27,118.17,021218,,,A*60
$GPGSA,A,3,20,26,10,16,21,27,29,15,,,,,2.2,1.3,1.8*30
$GPGGA,211116.000,3306.7135,S,06418.0560,W,1,08,1.3,426.0,M,21.4,M,,0000*54
$GPGSV,3,1,10,20,75,069,34,26,59,307,36,10,56,358,37,16,54,247,35*72
$GPGSV,3,3,10,08,01,235,,31,00,331,*76
$GPGGA,211117.000,3306.7136,S,06418.0553,W,1,08,1.3,426.0,M,21.4,M,,0000*56
$GPRMC,211117.000,A,3306.7136,S,06418.0553,W,2.19,107.49,021218,,,A*60
$GPGSA,A,3,20,26,10,16,21,27,29,15,,,,,2.2,1.3,1.8*30
$GPGGA,211119.000,3306.7141,S,06418.0542,W,1,08,1.3,426.1,M,21.4,M,,0000*59
$GPRMC,211119.000,A,3306.7141,S,06418.0542,W,2.06,113.35,021218,,,A*6E
$GPGSA,A,3,20,26,10,16,21,27,29,15,,,,,2.2,1.3,1.8*30
$GPGGA,211121.000,3306.7145,S,06418.0528,W,1,08,1.3,426.1,M,21.4,M,,0000*5A
$GPGSV,3,1,10,20,75,069,31,26,59,307,36,10,56,358,37,16,54,247,35*77
$GPGSV,3,3,10,08,01,235,,31,00,331,*76
$GPGGA,211122.000,3306.7148,S,06418.0521,W,1,08,1.3,426.2,M,21.4,M,,0000*5E
$GPRMC,211122.000,A,3306.7148,S,06418.0521,W,2.00,117.38,021218,,,A*65
$GPGSA,A,3,20,26,10,16,21,27,29,15,,,,,2.2,1.3,1.8*30
$GPGGA,211124.000,3306.7155,S,06418.0511,W,1,08,1.3,426.0,M,21.4,M,,0000*55
$GPRMC,211124.000,A,3306.7155,S,06418.0511,W,2.13,122.06,021218,,,A*65
$GPGSA,A,3,20,26,10,16,21,27,29,15,,,,,2.2,1.3,1.8*30
$GPGGA,211126.000,3306.7163,S,06418.0506,W,1,08,1.3,425.6,M,21.4,M,,0000*51
$GPGSV,3,1,10,20,75,069,38,26,59,307,41,10,56,358,41,16,54,247,39*73
$GPGSV,3,3,10,08,01,235,,31,00,331,*76
$GPGGA,211127.000,3306.7167,S,06418.0507,W,1,08,1.3,425.4,M,21.4,M,,0000*57
$GPRMC,211127.000,A,3306.7167,S,06418.0507,W,1.54,183.75,021218,,,A*6F
$GPGSA,A,3,20,26,10,16,21,27,29,15,,,,,2.2,1.3,1.8*30
$GPGGA,211129.000,3306.7175,S,06418.0513,W,1,08,1.3,425.2,M,21.4,M,,0000*59
$GPRMC,211129.000,A,3306.7175,S,06418.0513,W,1.65,214.65,021218,,,A*69
$GPGSA,A,3,20,26,10,16,21,27,29,15,,,,,2.2,1.3,1.8*30
$GPGGA,211131.000,3306.7177,S,06418.0525,W,1,08,1.3,425.1,M,21.4,M,,0000*54
$GPGSV,3,1,10,20,75,069,37,26,59,307,36,10,56,358,38,16,54,247,36*7D
$GPGSV,3,3,10,31,00,331,15,08,01,235,*72
$GPGGA,211132.000,3306.7177,S,06418.0530,W,1,08,1.3,425.1,M,21.4,M,,0000*53
$GPRMC,211132.000,A,3306.7177,S,06418.0530,W,1.72,265.12,021218,,,A*60
$GPGSA,A,3,20,26,10,16,21,27,29,15,,,,,2.2,1.3,1.8*30
$GPGGA,211134.000,3306.7174,S,06418.0543,W,1,08,1.3,425.4,M,21.4,M,,0000*57
$GPRMC,211134.000,A,3306.7174,S,06418.0543,W,1.88,284.25,021218,,,A*6F
$GPGSA,A,3,20,26,10,16,21,27,29,15,,,,,2.2,1.3,1.8*30
$GPGGA,211136.000,3306.7170,S,06418.0556,W,1,08,1.3,425.5,M,21.4,M,,0000*54
$GPGSV,3,1,10,20,75,069,35,26,59,307,38,10,56,358,40,16,54,247,38*70
$GPGSV,3,3,10,31,00,331,14,08,01,235,*73
$GPGGA,211137.000,3306.7168,S,06418.0562,W,1,08,1.3,425.5,M,21.4,M,,0000*5B
$GPRMC,211137.000,A,3306.7168,S,06418.0562,W,1.97,293.03,021218,,,A*6E
$GPGSA,A,3,20,26,10,16,21,27,29,15,,,,,2.2,1.3,1.8*30
$GPGGA,211139.000,3306.7162,S,06418.0574,W,1,08,1.3,425.5,M,21.4,M,,0000*58
$GPRMC,211139.000,A,3306.7162,S,06418.0574,W,1.98,302.42,021218,,,A*6E
$GPGSA,A,3,20,26,10,16,21,27,29,15,,,,,2.2,1.3,1.8*30
$GPGGA,211141.000,3306.7156,S,06418.0583,W,1,08,1.3,425.5,M,21.4,M,,0000*58
$GPGSV,3,1,10,20,75,075,30,26,58,310,33,10,57,358,34,16,54,249,34*74
$GPGSV,3,3,10,31,00,000,13,08,02,235,*76
$GPGGA,211142.000,3306.7153,S,06418.0589,W,1,08,1.3,425.6,M,21.4,M,,0000*57
$GPRMC,211142.000,A,3306.7153,S,06418.0589,W,2.26,300.81,021218,,,A*69
$GPGSA,A,3,20,26,10,16,21,27,29,15,,,,,2.2,1.3,1.8*30
$GPGGA,211144.000,3306.7147,S,06418.0601,W,1,08,1.3,425.7,M,21.4,M,,0000*56
$GPRMC,211144.000,A,3306.7147,S,06418.0601,W,1.86,299.51,021218,,,A*6C
$GPGSA,A,3,20,26,10,16,21,27,29,15,,,,,2.2,1.3,1.8*30
$GPGGA,211146.000,3306.7145,S,06418.0614,W,1,08,1.3,425.7,M,21.4,M,,0000*52
$GPGSV,3,1,09,20,75,075,31,26,58,310,34,10,57,358,34,16,54,249,33*7D
$GPGSV,3,3,09,08,02,235,*4E
$GPGGA,211147.000,3306.7145,S,06418.0621,W,1,08,1.3,425.7,M,21.4,M,,0000*55
$GPRMC,211147.000,A,3306.7145,S,06418.0621,W,2.25,272.41,021218,,,A*61
$GPGSA,A,3,20,26,10,16,21,27,29,15,,,,,2.2,1.3,1.8*30
$GPGGA,211149.000,3306.7144,S,06418.0633,W,1,08,1.3,425.8,M,21.4,M,,0000*56
$GPRMC,211149.000,A,3306.7144,S,06418.0633,W,1.80,277.55,021218,,,A*61
$GPGSA,A,3,20,26,10,16,21,27,29,15,,,,,2.2,1.3,1.8*30
$GPGGA,211151.000,3306.7141,S,06418.0646,W,1,08,1.3,425.6,M,21.4,M,,0000*56
$GPGSV,3,1,09,20,75,075,38,26,58,310,37,10,57,358,35,16,54,249,39*7C
$GPGSV,3,3,09,08,02,235,*4E
$GPGGA,211152.000,3306.7138,S,06418.0652,W,1,08,1.3,425.4,M,21.4,M,,0000*5C
$GPRMC,211152.000,A,3306.7138,S,06418.0652,W,2.03,293.76,021218,,,A*64
$GPGSA,A,3,20,26,10,16,21,27,29,15,,,,,2.2,1.3,1.8*30
$GPGGA,211154.000,3306.7133,S,06418.0665,W,1,08,1.3,425.2,M,21.4,M,,0000*53
$GPRMC,211154.000,A,3306.7133,S,06418.0665,W,2.06,299.50,021218,,,A*66
$GPGSA,A,3,20,26,10,16,21,27,29,15,,,,,2.2,1.3,1.8*30
$GPGGA,211156.000,3306.7128,S,06418.0677,W,1,08,1.3,425.2,M,21.4,M,,0000*58
$GPGSV,3,1,09,20,75,075,26,26,58,310,28,10,57,358,30,16,54,249,28*78
$GPGSV,3,3,09,08,02,235,*4E
$GPGGA,211157.000,3306.7125,S,06418.0683,W,1,08,1.3,425.2,M,21.4,M,,0000*5F
$GPRMC,211157.000,A,3306.7125,S,06418.0683,W,2.05,297.83,021218,,,A*69
$GPGSA,A,3,20,26,10,16,21,27,29,15,,,,,2.2,1.3,1.8*30
$GPGGA,211159.000,3306.7120,S,06418.0695,W,1,08,1.3,425.1,M,21.4,M,,0000*50
$GPRMC,211159.000,A,3306.7120,S,06418.0695,W,1.96,295.53,021218,,,A*63
$GPGSA,A,3,20,26,10,16,21,27,29,15,,,,,2.2,1.3,1.8*30
$GPGGA,211201.000,3306.7115,S,06418.0706,W,1,08,1.3,425.1,M,21.4,M,,0000*53
$GPGSV,3,1,09,20,75,075,26,26,58,310,24,10,57,358,23,16,54,249,23*7D
$GPGSV,3,3,09,08,02,235,*4E
$GPGGA,211202.000,3306.7113,S,06418.0711,W,1,08,1.3,425.1,M,21.4,M,,0000*50
$GPRMC,211202.000,A,3306.7113,S,06418.0711,W,1.87,295.99,021218,,,A*65
$GPGSA,A,3,20,26,10,16,21,29,15,,,,,,2.8,1.6,2.3*32
$GPGGA,211204.000,3306.7108,S,06418.0725,W,1,07,1.6,425.1,M,21.4,M,,0000*51
$GPRMC,211204.000,A,3306.7108,S,06418.0725,W,2.18,295.02,021218,,,A*69
$GPGSA,A,3,20,26,10,16,21,27,29,15,,,,,2.2,1.3,1.8*30
$GPGGA,211206.000,3306.7102,S,06418.0738,W,1,08,1.3,424.9,M,21.4,M,,0000*56
$GPGSV,3,1,09,20,75,075,25,26,58,310,23,10,57,358,24,16,54,249,23*7E
$GPGSV,3,3,09,08,02,235,*4E
$GPGGA,211207.000,3306.7098,S,06418.0745,W,1,08,1.3,424.9,M,21.4,M,,0000*5F
$GPRMC,211207.000,A,3306.7098,S,06418.0745,W,2.40,298.61,021218,,,A*61
$GPGSA,A,3,20,26,10,16,21,27,29,15,,,,,2.2,1.3,1.8*30
$GPGGA,211209.000,3306.7092,S,06418.0758,W,1,08,1.3,424.8,M,21.4,M,,0000*56
$GPRMC,211209.000,A,3306.7092,S,06418.0758,W,2.30,298.76,021218,,,A*68
$GPGSA,A,3,20,26,10,16,21,27,29,15,,,,,2.2,1.3,1.8*30
$GPGGA,211211.000,3306.7092,S,06418.0773,W,1,08,1.3,424.8,M,21.4,M,,0000*56
$GPGSV,3,1,09,20,75,075,24,26,58,310,23,10,57,358,24,16,54,249,23*7F
$GPGSV,3,3,09,08,02,235,*4E
$PSRF156,23,1,0*09
$GPGSA,A,3,20,26,10,16,21,27,29,15,,,,,2.2,1.3,1.8*30
$GPGGA,211213.000,3306.7088,S,06418.0786,W,1,08,1.3,424.8,M,21.4,M,,0000*55
$GPRMC,211213.000,A,3306.7088,S,06418.0786,W,1.92,290.06,021218,,,A*6F
$GPGSA,A,3,20,26,10,16,21,29,15,,,,,,2.8,1.6,2.3*32
$GPGGA,211215.000,3306.7081,S,06418.0801,W,1,07,1.6,424.8,M,21.4,M,,0000*50
$GPRMC,211215.000,A,3306.7081,S,06418.0801,W,2.48,291.82,021218,,,A*69
$GPGSA,A,3,20,26,10,16,21,29,15,,,,,,2.8,1.6,2.3*32
$GPGSV,3,2,09,21,49,140,23,29,17,072,25,15,14,110,20,27,29,226,23*7E
$GPRMC,211216.000,A,3306.7078,S,06418.0806,W,1.95,293.32,021218,,,A*61
$GPGSA,A,3,20,26,10,16,21,27,29,15,,,,,2.2,1.3,1.8*30
$GPGGA,211218.000,3306.7072,S,06418.0815,W,1,08,1.3,424.7,M,21.4,M,,0000*51
$GPRMC,211218.000,A,3306.7072,S,06418.0815,W,2.14,300.78,021218,,,A*68
$GPGSA,A,3,20,26,10,16,21,27,29,15,,,,,2.2,1.3,1.8*30
$GPGGA,211220.000,3306.7070,S,06418.0825,W,1,08,1.3,424.6,M,21.4,M,,0000*5A
$GPRMC,211220.000,A,3306.7070,S,06418.0825,W,2.23,300.39,021218,,,A*63
$GPGSA,A,3,20,26,10,16,21,27,29,15,,,,,2.2,1.3,1.8*30
$GPGSV,3,2,09,21,49,140,28,27,29,226,27,29,17,072,25,15,14,110,25*74
$GPRMC,211221.000,A,3306.7070,S,06418.0834,W,2.24,297.27,021218,,,A*65
$GPGSA,A,3,20,26,10,16,21,27,29,15,,,,,2.2,1.3,1.8*30
$GPGGA,211223.000,3306.7065,S,06418.0849,W,1,06,1.9,424.4,M,21.4,M,,0000*51
$GPRMC,211223.000,A,3306.7065,S,06418.0849,W,2.61,297.33,021218,,,A*6D
$GPGSA,A,3,20,26,10,16,21,27,29,15,,,,,2.2,1.3,1.8*30
$GPGGA,211225.000,3306.7059,S,06418.0867,W,1,08,1.3,424.5,M,21.4,M,,0000*51
$GPRMC,211225.000,A,3306.7059,S,06418.0867,W,2.71,292.91,021218,,,A*64
$GPGSA,A,3,20,26,10,16,21,27,29,15,,,,,2.2,1.3,1.8*30
$GPGSV,3,2,09,21,49,140,23,27,29,226,23,29,17,072,18,15,14,110,19*7A
$GPRMC,211226.000,A,3306.7057,S,06418.0873,W,2.21,291.85,021218,,,A*6F
$GPGSA,A,3,20,26,10,16,21,27,29,15,,,,,2.2,1.3,1.8*30
$GPGGA,211228.000,3306.7051,S,06418.0887,W,1,08,1.3,424.4,M,21.4,M,,0000*5B
$GPRMC,211228.000,A,3306.7051,S,06418.0887,W,1.82,291.31,021218,,,A*69
$GPGSA,A,3,20,26,10,16,21,27,29,15,,,,,2.2,1.3,1.8*30
$GPGGA,211230.000,3306.7047,S,06418.0902,W,1,08,1.3,424.3,M,21.4,M,,0000*5E
$GPRMC,211230.000,A,3306.7047,S,06418.0902,W,2.13,292.26,021218,,,A*65
$GPGSA,A,3,20,26,10,16,21,27,29,15,,,,,2.2,1.3,1.8*30
$GPGSV,3,2,09,21,49,140,24,27,29,226,24,29,17,072,17,15,14,110,18*74
$GPRMC,211231.000,A,3306.7044,S,06418.0910,W,2.21,292.38,021218,,,A*6A
$GPGSA,A,3,20,26,10,16,21,27,29,15,,,,,2.2,1.3,1.8*30
$GPGGA,211233.000,3306.7038,S,06418.0921,W,1,08,1.3,424.1,M,21.4,M,,0000*56
$GPRMC,211233.000,A,3306.7038,S,06418.0921,W,1.88,293.19,021218,,,A*63
$GPGSA,A,3,20,26,10,16,21,27,29,15,,,,,2.2,1.3,1.8*30
$GPGGA,211235.000,3306.7036,S,06418.0933,W,1,08,1.3,423.9,M,21.4,M,,0000*52
$GPRMC,211235.000,A,3306.7036,S,06418.0933,W,2.04,290.84,021218,,,A*68
$GPGSA,A,3,20,26,10,16,21,27,29,15,,,,,2.2,1.3,1.8*30
$GPGSV,3,2,09,21,49,140,28,27,29,226,27,29,17,072,16,15,14,110,20*71
$GPRMC,211236.000,A,3306.7037,S,06418.0938,W,1.92,277.06,021218,,,A*6E
$GPGSA,A,3,20,26,10,16,21,27,29,15,,,,,2.2,1.3,1.8*30
$GPGGA,211238.000,3306.7043,S,06418.0945,W,1,08,1.3,423.9,M,21.4,M,,0000*5C
$GPRMC,211238.000,A,3306.7043,S,06418.0945,W,1.71,236.62,021218,,,A*63
$GPGSA,A,3,20,26,10,16,21,27,29,15,,,,,2.2,1.3,1.8*30
$GPGGA,211240.000,3306.7050,S,06418.0956,W,1,08,1.3,424.3,M,21.4,M,,0000*5E
$GPRMC,211240.000,A,3306.7050,S,06418.0956,W,1.74,225.45,021218,,,A*6E
$GPGSA,A,3,20,26,10,16,21,27,29,15,,,,,2.2,1.3,1.8*30
$GPGSV,3,2,09,21,49,140,31,27,29,226,21,29,17,072,18,15,14,110,24*75
$GPRMC,211241.000,A,3306.7053,S,06418.0960,W,1.44,223.27,021218,,,A*68
$GPGSA,A,3,20,26,10,16,21,27,29,15,,,,,2.2,1.3,1.8*30
$GPGGA,211243.000,3306.7062,S,06418.0958,W,1,08,1.3,424.3,M,21.4,M,,0000*52
$GPRMC,211243.000,A,3306.7062,S,06418.0958,W,2.05,199.22,021218,,,A*62
$GPGSA,A,3,20,26,10,16,21,27,29,15,,,,,2.2,1.3,1.8*30
$GPGGA,211245.000,3306.7066,S,06418.0946,W,1,08,1.3,424.3,M,21.4,M,,0000*5F
$GPRMC,211245.000,A,3306.7066,S,06418.0946,W,2.04,159.87,021218,,,A*6D
$GPGSA,A,3,20,26,10,16,21,27,29,15,,,,,2.2,1.3,1.8*30
$GPGSV,3,2,09,21,49,140,37,27,29,226,32,29,17,072,36,15,14,110,36*7E
$GPRMC,211246.000,A,3306.7065,S,06418.0934,W,2.25,130.63,021218,,,A*6E
$GPGSA,A,3,20,26,10,16,21,27,29,15,,,,,2.2,1.3,1.8*30
$GPGGA,211248.000,3306.7069,S,06418.0919,W,1,08,1.3,423.9,M,21.4,M,,0000*5A
$GPRMC,211248.000,A,3306.7069,S,06418.0919,W,2.08,114.80,021218,,,A*67
$GPGSA,A,3,20,26,10,16,21,27,29,15,,,,,2.2,1.3,1.8*30
$GPGGA,211250.000,3306.7073,S,06418.0905,W,1,08,1.3,424.0,M,21.4,M,,0000*5B
$GPRMC,211250.000,A,3306.7073,S,06418.0905,W,1.99,111.92,021218,,,A*65
$GPGSA,A,3,20,26,10,16,21,27,29,15,,,,,2.2,1.3,1.8*30
$GPGSV,3,2,09,21,49,140,29,27,29,226,22,29,17,072,28,15,14,110,27*7F
$GPRMC,211251.000,A,3306.7076,S,06418.0899,W,2.05,113.75,021218,,,A*68
$GPGSA,A,3,20,26,10,16,21,27,29,15,,,,,2.2,1.3,1.8*30
$GPGGA,211253.000,3306.7080,S,06418.0885,W,1,08,1.3,424.1,M,21.4,M,,0000*5C
$GPRMC,211253.000,A,3306.7080,S,06418.0885,W,2.10,108.88,021218,,,A*62
$GPGSA,A,3,20,26,10,16,21,27,29,15,,,,,2.2,1.3,1.8*30
$GPGGA,211255.000,3306.7085,S,06418.0871,W,1,08,1.3,424.1,M,21.4,M,,0000*54
$GPRMC,211255.000,A,3306.7085,S,06418.0871,W,2.22,112.82,021218,,,A*6A
$GPGSA,A,3,20,26,10,16,21,27,29,15,,,,,2.2,1.3,1.8*30
$GPGSV,3,2,09,21,49,140,29,27,29,226,28,29,17,072,27,15,14,110,27*7A
$GPRMC,211256.000,A,3306.7088,S,06418.0865,W,2.01,112.43,021218,,,A*6D
$GPGSA,A,3,20,26,10,16,21,27,29,15,,,,,2.2,1.3,1.8*30
$GPGGA,211258.000,3306.7094,S,06418.0851,W,1,08,1.3,424.1,M,21.4,M,,0000*5B
$GPRMC,211258.000,A,3306.7094,S,06418.0851,W,2.08,112.24,021218,,,A*61
$GPGSA,A,3,20,26,10,16,21,27,29,15,,,,,2.2,1.3,1.8*30
$GPGGA,211300.000,3306.7101,S,06418.0837,W,1,08,1.3,424.3,M,21.4,M,,0000*58
$GPRMC,211300.000,A,3306.7101,S,06418.0837,W,2.14,112.51,021218,,,A*6F
$GPGSA,A,3,20,26,10,16,21,27,29,15,,,,,2.2,1.3,1.8*30
$GPGSV,3,2,09,21,49,140,30,27,29,226,28,29,17,072,34,15,14,110,27*70
$GPRMC,211301.000,A,3306.7104,S,06418.0830,W,2.34,116.91,021218,,,A*66
$GPGSA,A,3,20,26,10,16,21,27,29,15,,,,,2.2,1.3,1.8*30
$GPGGA,211303.000,3306.7110,S,06418.0817,W,1,08,1.3,424.3,M,21.4,M,,0000*59
$GPRMC,211303.000,A,3306.7110,S,06418.0817,W,2.37,116.22,021218,,,A*6F
$GPGSA,A,3,20,26,10,16,21,27,29,15,,,,,2.2,1.3,1.8*30
$GPGGA,211305.000,3306.7115,S,06418.0802,W,1,08,1.3,424.3,M,21.4,M,,0000*5E
$GPRMC,211305.000,A,3306.7115,S,06418.0802,W,2.58,115.65,021218,,,A*61
$GPGSA,A,3,20,26,10,16,21,27,29,15,,,,,2.2,1.3,1.8*30
$GPGSV,3,2,09,21,49,140,25,27,29,226,23,29,17,072,28,15,14,110,24*71
$GPRMC,211306.000,A,3306.7119,S,06418.0794,W,2.67,115.46,021218,,,A*63
$GPGSA,A,3,20,26,10,16,21,27,29,15,,,,,2.2,1.3,1.8*30
$GPGGA,211308.000,3306.7126,S,06418.0780,W,1,05,1.8,424.2,M,21.4,M,,0000*51
$GPRMC,211308.000,A,3306.7126,S,06418.0780,W,2.46,118.40,021218,,,A*6C
$GPGSA,A,3,20,26,10,16,21,27,29,15,,,,,2.2,1.3,1.8*30
$GPGGA,211310.000,3306.7131,S,06418.0766,W,1,08,1.3,424.1,M,21.4,M,,0000*53
$GPRMC,211310.000,A,3306.7131,S,06418.0766,W,2.35,116.45,021218,,,A*64
$GPGSA,A,3,20,26,10,16,21,27,29,15,,,,,2.2,1.3,1.8*30
$GPGSV,3,2,09,21,49,140,29,27,29,226,24,29,17,072,28,15,14,110,26*78
$GPRMC,211311.000,A,3306.7135,S,06418.0758,W,2.40,116.32,021218,,,A*6E
$GPGSA,A,3,20,26,10,16,21,27,29,15,,,,,2.2,1.3,1.8*30
$GPGGA,211313.000,3306.7143,S,06418.0744,W,1,08,1.3,424.5,M,21.4,M,,0000*51
$GPRMC,211313.000,A,3306.7143,S,06418.0744,W,2.44,121.79,021218,,,A*6F
$GPGSA,A,3,20,26,10,16,21,27,29,15,,,,,2.2,1.3,1.8*30
$GPGGA,211315.000,3306.7149,S,06418.0731,W,1,08,1.3,424.4,M,21.4,M,,0000*5E
$GPRMC,211315.000,A,3306.7149,S,06418.0731,W,2.30,120.04,021218,,,A*69
$GPGSA,A,3,20,26,10,16,21,27,29,15,,,,,2.2,1.3,1.8*30
$GPGSV,3,2,09,21,49,140,23,27,29,226,15,29,17,072,28,15,14,110,16*73
$GPRMC,211316.000,A,3306.7151,S,06418.0725,W,2.23,119.86,021218,,,A*64
$GPGSA,A,3,20,26,10,16,21,27,29,15,,,,,2.2,1.3,1.8*30
$GPGGA,211318.000,3306.7155,S,06418.0714,W,1,08,1.3,424.4,M,21.4,M,,0000*59
$GPRMC,211318.000,A,3306.7155,S,06418.0714,W,1.95,117.99,021218,,,A*62
$GPGSA,A,3,20,26,10,16,21,27,29,15,,,,,2.2,1.3,1.8*30
$GPGGA,211320.000,3306.7160,S,06418.0700,W,1,08,1.3,424.5,M,21.4,M,,0000*50
$GPRMC,211320.000,A,3306.7160,S,06418.0700,W,2.50,114.37,021218,,,A*67
$GPGSA,A,3,20,26,10,16,21,27,29,15,,,,,2.2,1.3,1.8*30
$GPGSV,3,2,09,21,49,140,31,27,29,226,26,29,17,072,27,15,14,110,26*7C
$GPRMC,211321.000,A,3306.7164,S,06418.0692,W,2.51,117.54,021218,,,A*6F
$GPGSA,A,3,20,26,10,16,21,27,29,15,,,,,2.2,1.3,1.8*30
$GPGGA,211323.000,3306.7170,S,06418.0681,W,1,08,1.3,424.5,M,21.4,M,,0000*5A
$GPRMC,211323.000,A,3306.7170,S,06418.0681,W,2.34,121.18,021218,,,A*64
$GPGSA,A,3,20,26,10,16,21,27,29,15,,,,,2.2,1.3,1.8*30
$GPGGA,211325.000,3306.7181,S,06418.0669,W,1,08,1.3,424.4,M,21.4,M,,0000*55
$GPRMC,211325.000,A,3306.7181,S,06418.0669,W,2.53,128.37,021218,,,A*6F
$GPGSA,A,3,20,26,10,16,21,27,29,15,,,,,2.2,1.3,1.8*30
$GPGSV,3,2,09,21,49,140,28,27,29,226,24,29,17,072,28,15,14,110,25*7A
$GPRMC,211326.000,A,3306.7185,S,06418.0664,W,2.27,132.55,021218,,,A*69
$GPGSA,A,3,20,26,10,16,21,27,29,15,,,,,2.2,1.3,1.8*30
$GPGGA,211328.000,3306.7195,S,06418.0655,W,1,08,1.3,424.2,M,21.4,M,,0000*54
$GPRMC,211328.000,A,3306.7195,S,06418.0655,W,2.26,140.92,021218,,,A*6B
$GPGSA,A,3,20,26,10,16,21,27,29,15,,,,,2.2,1.3,1.8*30
$GPGGA,211330.000,3306.7206,S,06418.0646,W,1,08,1.3,424.3,M,21.4,M,,0000*57
$GPRMC,211330.000,A,3306.7206,S,06418.0646,W,2.48,140.58,021218,,,A*67
$GPGSA,A,3,20,26,10,16,21,27,29,15,,,,,2.2,1.3,1.8*30
$GPGSV,3,2,09,21,49,140,35,27,29,226,25,29,17,072,36,15,14,110,26*7B
$GPRMC,211331.000,A,3306.7213,S,06418.0643,W,2.35,136.45,021218,,,A*60
$GPGSA,A,3,20,26,10,16,21,27,29,15,,,,,2.2,1.3,1.8*30
$GPGGA,211333.000,3306.7221,S,06418.0627,W,1,08,1.3,424.8,M,21.4,M,,0000*5D
$GPRMC,211333.000,A,3306.7221,S,06418.0627,W,2.44,128.65,021218,,,A*6A
$GPGSA,A,3,20,26,10,16,21,27,29,15,,,,,2.2,1.3,1.8*30
$GPGGA,211335.000,3306.7225,S,06418.0616,W,1,08,1.3,424.8,M,21.4,M,,0000*5D
$GPRMC,211335.000,A,3306.7225,S,06418.0616,W,1.81,122.87,021218,,,A*66
$GPGSA,A,3,20,26,10,16,21,27,29,15,,,,,2.2,1.3,1.8*30
$GPGSV,3,2,09,21,49,140,23,27,29,226,21,29,17,072,26,15,14,110,19*75
$GPRMC,211336.000,A,3306.7227,S,06418.0611,W,1.76,120.09,021218,,,A*6C
$GPGSA,A,3,20,26,10,16,21,27,29,15,,,,,2.2,1.3,1.8*30
$GPGGA,211338.000,3306.7229,S,06418.0600,W,1,08,1.3,424.8,M,21.4,M,,0000*5B
$GPRMC,211338.000,A,3306.7229,S,06418.0600,W,1.70,113.63,021218,,,A*66
$GPGSA,A,3,20,26,10,16,21,27,29,15,,,,,2.2,1.3,1.8*30
$GPGGA,211340.000,3306.7232,S,06418.0586,W,1,08,1.3,425.0,M,21.4,M,,0000*5A
$GPRMC,211340.000,A,3306.7232,S,06418.0586,W,2.07,105.74,021218,,,A*6C
$GPGSA,A,3,20,26,10,16,21,27,29,15,,,,,2.2,1.3,1.8*30
$GPGSV,3,2,09,21,49,140,29,27,29,226,26,29,17,072,27,15,14,110,22*71
$GPRMC,211341.000,A,3306.7234,S,06418.0580,W,1.86,103.85,021218,,,A*6F
$GPGSA,A,3,20,26,10,16,21,27,29,15,,,,,2.2,1.2,1.8*31
$GPGGA,211343.000,3306.7236,S,06418.0566,W,1,08,1.2,424.4,M,21.4,M,,0000*57
$GPRMC,211343.000,A,3306.7236,S,06418.0566,W,1.81,93.87,021218,,,A*5A
$GPGSA,A,3,20,26,10,16,21,27,29,15,,,,,2.2,1.2,1.8*31
$GPGGA,211345.000,3306.7231,S,06418.0556,W,1,08,1.2,424.6,M,21.4,M,,0000*57
$GPRMC,211345.000,A,3306.7231,S,06418.0556,W,1.41,79.87,021218,,,A*50
$GPGSA,A,3,20,26,10,16,21,29,15,,,,,,2.8,1.6,2.3*32
$GPGSV,3,2,09,21,49,140,16,29,17,072,09,15,14,110,08,27,29,226,08*75
$GPRMC,211346.000,A,3306.7229,S,06418.0552,W,1.22,78.60,021218,,,A*53
$GPGSA,A,3,20,26,10,16,21,,,,,,,,7.7,2.0,7.5*31
