$GPGSA,A,3,20,26,21,16,10,27,29,15,,,,,2.1,1.2,1.7*3D
$GPGSV,3,2,09,10,48,357,38,27,22,230,31,29,22,079,19,15,13,103,26*7D
$GPRMC,205431.000,A,3306.6957,S,06418.0837,W,0.00,190.36,021218,,,A*69
$GPGSA,A,3,20,26,21,16,10,27,29,15,,,,,2.1,1.2,1.7*3D
$GPGGA,205433.000,3306.6957,S,06418.0838,W,1,08,1.2,436.4,M,21.4,M,,0000*5A
$GPRMC,205433.000,A,3306.6957,S,06418.0838,W,0.34,190.36,021218,,,A*63
$GPGSA,A,3,20,26,21,16,10,27,29,15,,,,,2.1,1.2,1.7*3D
$GPGGA,205435.000,3306.6957,S,06418.0837,W,1,08,1.2,436.3,M,21.4,M,,0000*54
$GPRMC,205435.000,A,3306.6957,S,06418.0837,W,0.11,190.36,021218,,,A*6D
$GPGSA,A,3,20,26,21,16,10,27,29,15,,,,,2.1,1.2,1.7*3D
$GPGSV,3,2,09,10,48,357,39,27,22,230,34,29,22,079,18,15,13,103,21*7F
$GPRMC,205436.000,A,3306.6957,S,06418.0836,W,0.15,190.36,021218,,,A*6B
$GPGSA,A,3,20,26,21,16,10,27,29,15,,,,,2.1,1.2,1.7*3D
$GPGGA,205438.000,3306.6957,S,06418.0836,W,1,08,1.2,436.1,M,21.4,M,,0000*5A
$GPRMC,205438.000,A,3306.6957,S,06418.0836,W,0.00,190.36,021218,,,A*61
$GPGSA,A,3,20,26,21,16,10,27,29,15,,,,,2.1,1.2,1.7*3D
$GPGGA,205440.000,3306.6957,S,06418.0836,W,1,08,1.2,436.1,M,21.4,M,,0000*55
$GPRMC,205440.000,A,3306.6957,S,06418.0836,W,0.00,190.36,021218,,,A*6E
$GPGSA,A,3,20,26,21,16,10,27,29,15,,,,,2.1,1.2,1.7*3D
$GPGSV,3,2,09,10,48,357,40,27,22,230,33,29,22,079,18,15,13,103,20*77
$GPRMC,205441.000,A,3306.6957,S,06418.0836,W,0.00,190.36,021218,,,A*6F
$GPGSA,A,3,20,26,21,16,10,27,29,15,,,,,2.1,1.2,1.7*3D
$GPGGA,205443.000,3306.6958,S,06418.0836,W,1,08,1.2,435.7,M,21.4,M,,0000*5C
$GPRMC,205443.000,A,3306.6958,S,06418.0836,W,0.01,190.36,021218,,,A*63
$GPGSA,A,3,20,26,21,16,10,27,29,,,,,,2.3,1.3,1.9*34
$GPGGA,205445.000,3306.6958,S,06418.0836,W,1,07,1.3,435.7,M,21.4,M,,0000*54
$GPRMC,205445.000,A,3306.6958,S,06418.0836,W,0.00,190.36,021218,,,A*64
$GPGSA,A,3,20,26,21,16,10,27,,,,,,,3.7,1.8,3.2*38
$GPGSV,3,2,09,10,48,357,36,27,22,230,31,15,13,103,04,29,22,079,07*7C
$GPRMC,205446.000,A,3306.6958,S,06418.0836,W,0.00,190.36,021218,,,A*67
$GPGSA,A,3,20,26,21,16,10,27,,,,,,,3.7,1.8,3.2*38
$GPGGA,205448.000,3306.6958,S,06418.0836,W,1,06,1.8,435.7,M,21.4,M,,0000*53
$GPRMC,205448.000,A,3306.6958,S,06418.0836,W,0.00,190.36,021218,,,A*69
$GPGSA,A,3,20,26,21,16,10,27,15,,,,,,2.2,1.3,1.8*3B
$GPGGA,205450.000,3306.6958,S,06418.0835,W,1,07,1.3,435.6,M,21.4,M,,0000*52
$GPRMC,205450.000,A,3306.6958,S,06418.0835,W,0.00,190.36,021218,,,A*63
$GPGSA,A,3,20,26,21,16,10,27,15,,,,,,2.2,1.3,1.8*3B
$GPGSV,3,2,09,10,48,357,35,27,22,230,28,15,13,103,11,29,22,079,16*73
$GPRMC,205451.000,A,3306.6958,S,06418.0834,W,0.03,190.36,021218,,,A*60
$GPGSA,A,3,20,26,21,16,10,27,15,,,,,,2.2,1.3,1.8*3B
$GPGGA,205453.000,3306.6958,S,06418.0834,W,1,07,1.3,435.4,M,21.4,M,,0000*52
$GPRMC,205453.000,A,3306.6958,S,06418.0834,W,0.00,190.36,021218,,,A*61
$GPGSA,A,3,20,26,21,16,10,27,15,,,,,,2.2,1.3,1.8*3B
$GPGGA,205455.000,3306.6958,S,06418.0834,W,1,07,1.3,435.4,M,21.4,M,,0000*54
$GPRMC,205455.000,A,3306.6958,S,06418.0834,W,0.00,190.36,021218,,,A*67
$GPGSA,A,3,20,26,21,16,10,27,15,,,,,,2.2,1.3,1.8*3B
$GPGSV,3,2,09,10,48,357,35,27,22,230,28,15,13,103,10,29,22,079,17*73
$GPRMC,205456.000,A,3306.6958,S,06418.0834,W,0.03,190.36,021218,,,A*67
$GPGSA,A,3,20,26,21,16,10,27,15,,,,,,2.2,1.3,1.8*3B
$GPGGA,205458.000,3306.6958,S,06418.0834,W,1,07,1.3,435.3,M,21.4,M,,0000*5E
$GPRMC,205458.000,A,3306.6958,S,06418.0834,W,0.00,190.36,021218,,,A*6A
$GPGSA,A,3,20,26,21,16,10,27,15,,,,,,2.2,1.3,1.8*3B
$GPGGA,205500.000,3306.6958,S,06418.0834,W,1,07,1.3,435.3,M,21.4,M,,0000*52
$GPRMC,205500.000,A,3306.6958,S,06418.0834,W,0.00,190.36,021218,,,A*66
$GPGSA,A,3,20,26,21,16,10,27,15,,,,,,2.2,1.3,1.8*3B
$GPGSV,3,2,09,10,48,357,35,27,22,230,33,15,13,103,17,31,04,326,06*7A
$GPRMC,205501.000,A,3306.6958,S,06418.0834,W,0.00,190.36,021218,,,A*67
$GPGSA,A,3,20,26,21,16,10,27,15,,,,,,2.2,1.3,1.8*3B
$GPGGA,205503.000,3306.6958,S,06418.0834,W,1,07,1.3,435.3,M,21.4,M,,0000*51
$GPRMC,205503.000,A,3306.6958,S,06418.0834,W,0.00,190.36,021218,,,A*65
$GPGSA,A,3,20,26,21,16,10,27,29,15,,,,,2.1,1.2,1.7*3D
$GPGGA,205505.000,3306.6958,S,06418.0834,W,1,08,1.2,435.3,M,21.4,M,,0000*59
$GPRMC,205505.000,A,3306.6958,S,06418.0834,W,0.00,190.36,021218,,,A*63
$GPGSA,A,3,20,26,21,16,10,27,29,15,,,,,2.1,1.2,1.7*3D
$GPGSV,3,2,09,10,48,357,35,27,22,230,33,29,22,079,18,15,13,103,16*70
$GPRMC,205506.000,A,3306.6958,S,06418.0834,W,0.00,190.36,021218,,,A*60
$GPGSA,A,3,20,26,21,16,10,27,29,15,,,,,2.1,1.2,1.7*3D
$GPGGA,205508.000,3306.6958,S,06418.0834,W,1,08,1.2,435.3,M,21.4,M,,0000*54
$GPRMC,205508.000,A,3306.6958,S,06418.0834,W,0.00,190.36,021218,,,A*6E
$GPGSA,A,3,20,26,21,16,10,27,29,15,,,,,2.1,1.2,1.7*3D
$GPGGA,205510.000,3306.6958,S,06418.0834,W,1,08,1.2,435.3,M,21.4,M,,0000*5D
$GPRMC,205510.000,A,3306.6958,S,06418.0834,W,0.00,190.36,021218,,,A*67
$GPGSA,A,3,20,26,21,16,10,27,29,15,,,,,2.1,1.2,1.7*3D
$GPGSV,3,2,09,10,48,357,36,27,22,230,33,29,22,079,19,15,13,103,15*71
$GPRMC,205511.000,A,3306.6958,S,06418.0834,W,0.00,190.36,021218,,,A*66
$GPGSA,A,3,20,26,21,16,10,27,29,15,,,,,2.1,1.2,1.7*3D
$GPGGA,205513.000,3306.6959,S,06418.0834,W,1,08,1.2,434.9,M,21.4,M,,0000*54
$GPRMC,205513.000,A,3306.6959,S,06418.0834,W,0.07,190.36,021218,,,A*62
$GPGSA,A,3,20,26,21,16,10,27,29,15,,,,,2.1,1.2,1.7*3D
$GPGGA,205515.000,3306.6959,S,06418.0835,W,1,08,1.2,434.6,M,21.4,M,,0000*5C
$GPRMC,205515.000,A,3306.6959,S,06418.0835,W,0.04,190.36,021218,,,A*66
$GPGSA,A,3,20,26,21,16,10,27,29,15,,,,,2.1,1.2,1.7*3D
$GPGSV,3,2,09,10,48,357,38,27,22,230,33,29,22,079,12,15,13,103,15*74
$GPRMC,205516.000,A,3306.6959,S,06418.0835,W,0.03,190.36,021218,,,A*62
$GPGSA,A,3,20,26,21,16,10,27,29,15,,,,,2.1,1.2,1.7*3D
$GPGGA,205518.000,3306.6959,S,06418.0835,W,1,08,1.2,434.1,M,21.4,M,,0000*56
$GPRMC,205518.000,A,3306.6959,S,06418.0835,W,0.17,190.36,021218,,,A*69
$GPGSA,A,3,20,26,21,16,10,27,29,15,,,,,2.1,1.2,1.7*3D
$GPGGA,205520.000,3306.6963,S,06418.0836,W,1,06,1.9,434.1,M,21.4,M,,0000*52
$GPRMC,205520.000,A,3306.6963,S,06418.0836,W,0.78,190.36,021218,,,A*61
$GPGSA,A,3,20,26,21,16,10,27,29,15,,,,,2.1,1.2,1.7*3D
$GPGSV,3,2,09,10,48,357,26,27,22,230,14,29,22,079,12,15,13,103,09*73
$GPRMC,205521.000,A,3306.6965,S,06418.0835,W,0.98,190.36,021218,,,A*6B
$GPGSA,A,3,20,26,21,16,10,27,29,15,,,,,2.1,1.2,1.7*3D
$GPGGA,205523.000,3306.6971,S,06418.0840,W,1,07,1.3,433.1,M,21.4,M,,0000*5F
$GPRMC,205523.000,A,3306.6971,S,06418.0840,W,1.52,222.27,021218,,,A*63
$GPGSA,A,3,20,26,21,16,10,27,15,,,,,,2.2,1.3,1.8*3B
$GPGGA,205525.000,3306.6978,S,06418.0849,W,1,07,1.3,432.6,M,21.4,M,,0000*5F
$GPRMC,205525.000,A,3306.6978,S,06418.0849,W,1.79,230.69,021218,,,A*65
$GPGSA,A,3,20,26,21,16,10,27,,,,,,,3.7,1.8,3.3*39
$GPGSV,3,2,09,10,48,357,35,27,22,230,24,31,04,326,08,29,22,079,*75
$GPRMC,205526.000,A,3306.6979,S,06418.0853,W,1.25,234.15,021218,,,A*6A
$GPGSA,A,3,20,26,21,16,10,27,15,,,,,,2.2,1.3,1.8*3B
$GPGGA,205528.000,3306.6979,S,06418.0858,W,1,08,1.2,431.9,M,21.4,M,,0000*51
$GPRMC,205528.000,A,3306.6979,S,06418.0858,W,0.84,234.15,021218,,,A*65
$GPGSA,A,3,20,26,21,16,10,27,29,15,,,,,2.1,1.2,1.7*3D
$GPGGA,205530.000,3306.6977,S,06418.0860,W,1,08,1.2,432.0,M,21.4,M,,0000*57
$GPRMC,205530.000,A,3306.6977,S,06418.0860,W,0.46,234.15,021218,,,A*67
$GPGSA,A,3,20,26,21,16,10,27,29,15,,,,,2.1,1.2,1.7*3D
$GPGSV,3,2,09,10,48,357,41,27,22,230,30,29,22,079,24,15,13,103,30*7B
$GPRMC,205531.000,A,3306.6978,S,06418.0860,W,0.42,234.15,021218,,,A*6D
$GPGSA,A,3,20,26,21,16,10,27,29,15,,,,,2.1,1.2,1.7*3D
$GPGGA,205533.000,3306.6982,S,06418.0864,W,1,08,1.2,431.2,M,21.4,M,,0000*5B
$GPRMC,205533.000,A,3306.6982,S,06418.0864,W,0.83,222.44,021218,,,A*60
$GPGSA,A,3,20,26,21,16,10,27,29,15,,,,,2.1,1.2,1.7*3D
$GPGGA,205535.000,3306.6981,S,06418.0866,W,1,08,1.2,430.8,M,21.4,M,,0000*57
$GPRMC,205535.000,A,3306.6981,S,06418.0866,W,0.54,222.44,021218,,,A*6D
$GPGSA,A,3,20,26,21,16,10,27,29,15,,,,,2.1,1.2,1.7*3D
$GPGSV,3,2,09,10,48,357,33,27,22,230,29,29,22,079,22,15,13,103,29*78
$GPRMC,205536.000,A,3306.6980,S,06418.0868,W,0.59,222.44,021218,,,A*6C
$GPGSA,A,3,20,26,21,16,10,27,29,15,,,,,2.1,1.2,1.7*3D
$GPGGA,205538.000,3306.6980,S,06418.0872,W,1,08,1.2,430.6,M,21.4,M,,0000*50
$GPRMC,205538.000,A,3306.6980,S,06418.0872,W,0.63,222.44,021218,,,A*60
$GPGSA,A,3,20,26,21,16,10,27,29,15,,,,,2.1,1.2,1.7*3D
$GPGGA,205540.000,3306.6980,S,06418.0876,W,1,08,1.2,430.4,M,21.4,M,,0000*59
$GPRMC,205540.000,A,3306.6980,S,06418.0876,W,0.59,222.44,021218,,,A*62
$GPGSA,A,3,20,26,21,16,10,27,29,15,,,,,2.1,1.2,1.7*3D
$GPGSV,3,2,09,10,48,357,24,27,22,230,28,29,22,079,16,15,13,103,20*71
$GPRMC,205541.000,A,3306.6980,S,06418.0879,W,0.97,222.44,021218,,,A*6E
$GPGSA,A,3,20,26,21,16,10,27,29,15,,,,,2.1,1.2,1.7*3D
$GPGGA,205543.000,3306.6984,S,06418.0885,W,1,08,1.2,430.1,M,21.4,M,,0000*57
$GPRMC,205543.000,A,3306.6984,S,06418.0885,W,0.99,222.44,021218,,,A*65
$GPGSA,A,3,20,26,21,16,10,27,29,15,,,,,2.1,1.2,1.7*3D
$GPGGA,205545.000,3306.6990,S,06418.0895,W,1,08,1.2,429.8,M,21.4,M,,0000*54
$GPRMC,205545.000,A,3306.6990,S,06418.0895,W,2.01,231.60,021218,,,A*60
$GPGSA,A,3,20,26,21,16,10,27,29,15,,,,,2.1,1.2,1.7*3D
$GPGSV,3,2,09,10,48,357,22,27,22,230,30,29,22,079,23,15,13,103,30*79
$GPRMC,205546.000,A,3306.6996,S,06418.0899,W,2.20,217.71,021218,,,A*6E
$GPGSA,A,3,20,26,21,16,10,27,29,15,,,,,2.1,1.2,1.7*3D
$GPGGA,205548.000,3306.7007,S,06418.0905,W,1,08,1.2,428.1,M,21.4,M,,0000*5F
$GPRMC,205548.000,A,3306.7007,S,06418.0905,W,1.75,219.30,021218,,,A*6C
$GPGSA,A,3,20,26,21,16,10,27,29,15,,,,,2.1,1.2,1.7*3D
$GPGGA,205550.000,3306.7013,S,06418.0913,W,1,08,1.2,427.3,M,21.4,M,,0000*59
$GPRMC,205550.000,A,3306.7013,S,06418.0913,W,1.50,222.27,021218,,,A*6E
$GPGSA,A,3,20,26,21,16,10,27,29,15,,,,,2.1,1.2,1.7*3D
$GPGSV,3,2,09,10,48,357,31,27,22,230,33,29,22,079,28,15,13,103,33*70
$GPRMC,205551.000,A,3306.7016,S,06418.0916,W,1.25,221.33,021218,,,A*6B
$GPGSA,A,3,20,26,21,16,10,27,29,15,,,,,2.1,1.2,1.7*3D
$GPGGA,205553.000,3306.7023,S,06418.0921,W,1,08,1.2,426.9,M,21.4,M,,0000*53
$GPRMC,205553.000,A,3306.7023,S,06418.0921,W,2.18,214.79,021218,,,A*6E
$GPGSA,A,3,20,26,21,16,10,27,29,15,,,,,2.1,1.2,1.7*3D
$GPGGA,205555.000,3306.7033,S,06418.0928,W,1,08,1.2,426.4,M,21.4,M,,0000*50
$GPRMC,205555.000,A,3306.7033,S,06418.0928,W,1.89,215.27,021218,,,A*61
$GPGSA,A,3,20,26,21,16,10,27,29,15,,,,,2.1,1.2,1.7*3D
$GPGSV,3,2,09,10,48,357,38,27,22,230,37,29,22,079,37,15,13,103,36*76
$GPRMC,205556.000,A,3306.7038,S,06418.0931,W,1.51,219.36,021218,,,A*68
$GPGSA,A,3,20,26,21,16,10,27,29,15,,,,,2.1,1.2,1.7*3D
$GPGGA,205558.000,3306.7047,S,06418.0939,W,1,08,1.2,425.8,M,21.4,M,,0000*51
$GPRMC,205558.000,A,3306.7047,S,06418.0939,W,1.81,219.37,021218,,,A*6A
$GPGSA,A,3,20,26,21,16,10,27,29,15,,,,,2.1,1.2,1.7*3D
$GPGGA,205600.000,3306.7056,S,06418.0944,W,1,08,1.2,425.6,M,21.4,M,,0000*5B
$GPRMC,205600.000,A,3306.7056,S,06418.0944,W,1.57,202.50,021218,,,A*6E
$GPGSA,A,3,20,26,21,16,10,27,29,15,,,,,2.1,1.2,1.7*3D
$GPGSV,3,2,09,10,48,357,26,27,22,230,29,29,22,079,36,15,13,103,36*77
$GPRMC,205601.000,A,3306.7061,S,06418.0944,W,1.85,189.86,021218,,,A*6F
$GPGSA,A,3,20,26,21,16,10,27,29,15,,,,,2.1,1.2,1.7*3D
$GPGGA,205603.000,3306.7070,S,06418.0937,W,1,08,1.2,425.4,M,21.4,M,,0000*5A
$GPRMC,205603.000,A,3306.7070,S,06418.0937,W,2.23,129.47,021218,,,A*61
$GPGSA,A,3,20,26,21,16,10,27,29,15,,,,,2.1,1.2,1.7*3D
$GPGGA,205605.000,3306.7073,S,06418.0923,W,1,08,1.2,425.2,M,21.4,M,,0000*5C
$GPRMC,205605.000,A,3306.7073,S,06418.0923,W,1.91,109.08,021218,,,A*62
$GPGSA,A,3,20,26,21,16,10,27,29,15,,,,,2.1,1.2,1.7*3D
$GPGSV,3,2,09,10,48,357,36,27,22,230,34,29,22,079,41,15,13,103,36*7A
$GPRMC,205606.000,A,3306.7075,S,06418.0918,W,1.76,115.54,021218,,,A*62
$GPGSA,A,3,20,26,21,16,10,27,29,15,,,,,2.1,1.2,1.7*3D
$GPGGA,205608.000,3306.7079,S,06418.0907,W,1,08,1.2,425.0,M,21.4,M,,0000*5F
$GPRMC,205608.000,A,3306.7079,S,06418.0907,W,1.85,113.96,021218,,,A*6A
$GPGSA,A,3,20,26,21,16,10,27,29,15,,,,,2.1,1.2,1.7*3D
$GPGGA,205610.000,3306.7083,S,06418.0895,W,1,08,1.2,424.8,M,21.4,M,,0000*50
$GPRMC,205610.000,A,3306.7083,S,06418.0895,W,1.99,105.79,021218,,,A*67
$GPGSA,A,3,20,26,21,16,10,27,29,15,,,,,2.1,1.2,1.7*3D
$GPGSV,3,2,09,10,48,357,42,27,22,230,41,29,22,079,40,15,13,103,40*7B
$GPRMC,205611.000,A,3306.7083,S,06418.0889,W,2.29,91.14,021218,,,A*54
$GPGSA,A,3,20,26,21,16,10,27,29,15,,,,,2.1,1.2,1.7*3D
$GPGGA,205613.000,3306.7080,S,06418.0876,W,1,08,1.2,424.3,M,21.4,M,,0000*56
$GPRMC,205613.000,A,3306.7080,S,06418.0876,W,2.06,73.44,021218,,,A*51
$GPGSA,A,3,20,26,21,16,10,27,29,15,,,,,2.1,1.2,1.7*3D
$GPGGA,205615.000,3306.7073,S,06418.0866,W,1,08,1.2,424.2,M,21.4,M,,0000*5C
$GPRMC,205615.000,A,3306.7073,S,06418.0866,W,2.04,49.99,021218,,,A*51
$GPGSA,A,3,20,26,21,16,10,27,29,15,,,,,2.1,1.2,1.7*3D
$GPGSV,3,2,09,10,48,357,37,27,22,230,38,29,22,079,35,15,13,103,32*70
$GPRMC,205616.000,A,3306.7068,S,06418.0862,W,2.08,35.52,021218,,,A*5C
$GPGSA,A,3,20,26,21,16,10,27,29,15,,,,,2.1,1.2,1.7*3D
$GPGGA,205618.000,3306.7059,S,06418.0856,W,1,08,1.2,424.2,M,21.4,M,,0000*5A
$GPRMC,205618.000,A,3306.7059,S,06418.0856,W,1.54,30.42,021218,,,A*59
$GPGSA,A,3,20,26,21,16,10,27,29,15,,,,,2.1,1.2,1.7*3D
$GPGGA,205620.000,3306.7051,S,06418.0851,W,1,08,1.2,424.1,M,21.4,M,,0000*5D
$GPRMC,205620.000,A,3306.7051,S,06418.0851,W,1.80,33.28,021218,,,A*5B
$GPGSA,A,3,20,26,21,16,10,27,29,15,,,,,2.1,1.2,1.7*3D
$GPGSV,3,2,09,10,48,357,32,27,22,230,32,29,22,079,30,15,13,103,29*70
$GPRMC,205621.000,A,3306.7047,S,06418.0848,W,1.70,32.95,021218,,,A*5D
$GPGSA,A,3,20,26,21,16,10,27,29,15,,,,,2.1,1.2,1.7*3D
$GPGGA,205623.000,3306.7040,S,06418.0842,W,1,08,1.2,424.3,M,21.4,M,,0000*5E
$GPRMC,205623.000,A,3306.7040,S,06418.0842,W,1.24,35.98,021218,,,A*59
$GPGSA,A,3,20,26,21,16,10,27,29,15,,,,,2.1,1.2,1.7*3D
$GPGGA,205625.000,3306.7036,S,06418.0837,W,1,08,1.2,424.4,M,21.4,M,,0000*5C
$GPRMC,205625.000,A,3306.7036,S,06418.0837,W,0.99,35.98,021218,,,A*5B
$GPGSA,A,3,20,26,21,16,10,27,29,15,,,,,2.1,1.2,1.7*3D
$GPGSV,3,2,09,10,48,357,30,27,22,230,21,29,22,079,27,15,13,103,25*7A
$GPRMC,205626.000,A,3306.7035,S,06418.0834,W,1.23,39.49,021218,,,A*58
$GPGSA,A,3,20,26,21,16,10,27,29,15,,,,,2.1,1.2,1.7*3D
$GPGGA,205628.000,3306.7029,S,06418.0830,W,1,08,1.2,424.4,M,21.4,M,,0000*58
$GPRMC,205628.000,A,3306.7029,S,06418.0830,W,1.00,39.78,021218,,,A*5C
$GPGSA,A,3,20,26,21,16,10,27,29,15,,,,,2.1,1.2,1.7*3D
$GPGGA,205630.000,3306.7025,S,06418.0828,W,1,08,1.2,424.5,M,21.4,M,,0000*55
$GPRMC,205630.000,A,3306.7025,S,06418.0828,W,1.00,39.78,021218,,,A*50
$GPGSA,A,3,20,26,21,16,10,27,29,15,,,,,2.1,1.2,1.7*3D
$GPGSV,3,2,09,10,48,357,30,27,22,230,22,29,22,079,27,15,13,103,25*79
$GPRMC,205631.000,A,3306.7023,S,06418.0827,W,0.80,39.78,021218,,,A*51
$GPGSA,A,3,20,26,21,16,10,27,29,15,,,,,2.1,1.2,1.7*3D
$GPGGA,205633.000,3306.7025,S,06418.0824,W,1,08,1.2,424.6,M,21.4,M,,0000*59
$GPRMC,205633.000,A,3306.7025,S,06418.0824,W,0.68,39.78,021218,,,A*50
$GPGSA,A,3,20,26,21,16,10,27,29,15,,,,,2.1,1.2,1.7*3D
$GPGGA,205635.000,3306.7024,S,06418.0821,W,1,08,1.2,424.6,M,21.4,M,,0000*5B
$GPRMC,205635.000,A,3306.7024,S,06418.0821,W,0.60,39.78,021218,,,A*5A
$GPGSA,A,3,20,26,21,16,10,27,29,15,,,,,2.1,1.2,1.7*3D
$GPGSV,3,2,09,10,49,357,28,27,23,229,22,29,21,077,29,15,13,104,24*7D
$GPRMC,205636.000,A,3306.7021,S,06418.0820,W,1.05,39.78,021218,,,A*5F
$GPGSA,A,3,20,26,21,16,10,27,29,15,,,,,2.1,1.2,1.7*3D
$GPGGA,205638.000,3306.7017,S,06418.0819,W,1,08,1.2,424.7,M,21.4,M,,0000*5C
$GPRMC,205638.000,A,3306.7017,S,06418.0819,W,0.77,39.78,021218,,,A*5A
$GPGSA,A,3,20,26,21,16,10,27,29,15,,,,,2.1,1.2,1.7*3D
$GPGGA,205640.000,3306.7013,S,06418.0821,W,1,08,1.2,424.9,M,21.4,M,,0000*52
$GPRMC,205640.000,A,3306.7013,S,06418.0821,W,0.75,39.78,021218,,,A*58
$GPGSA,A,3,20,26,21,16,10,27,29,15,,,,,2.1,1.2,1.7*3D
$GPGSV,3,2,09,10,49,357,34,27,23,229,28,29,21,077,31,15,13,104,29*7E
$GPRMC,205641.000,A,3306.7011,S,06418.0821,W,0.84,39.78,021218,,,A*55
$GPGSA,A,3,20,26,21,16,10,27,29,15,,,,,2.1,1.2,1.7*3D
$GPGGA,205643.000,3306.7005,S,06418.0819,W,1,04,2.4,425.4,M,21.4,M,,0000*58
$GPRMC,205643.000,A,3306.7005,S,06418.0819,W,0.88,39.78,021218,,,A*55
$GPGSA,A,3,20,26,21,10,27,29,15,,,,,,2.2,1.3,1.7*38
$GPGGA,205645.000,3306.7001,S,06418.0815,W,1,08,1.2,425.6,M,21.4,M,,0000*5D
$GPRMC,205645.000,A,3306.7001,S,06418.0815,W,1.22,37.80,021218,,,A*53
$GPGSA,A,3,20,26,21,16,10,27,29,15,,,,,2.1,1.2,1.7*3D
$GPGSV,3,2,09,10,49,357,34,27,23,229,30,29,21,077,28,15,13,104,41*71
$GPRMC,205646.000,A,3306.6996,S,06418.0812,W,1.65,35.95,021218,,,A*54
$GPGSA,A,3,20,26,21,16,10,27,29,15,,,,,2.1,1.2,1.7*3D
$GPGGA,205648.000,3306.6990,S,06418.0802,W,1,08,1.2,425.9,M,21.4,M,,0000*59
$GPRMC,205648.000,A,3306.6990,S,06418.0802,W,1.46,57.34,021218,,,A*53
$GPGSA,A,3,20,26,21,16,10,27,29,15,,,,,2.1,1.2,1.7*3D
$GPGGA,205650.000,3306.6989,S,06418.0791,W,1,08,1.2,426.0,M,21.4,M,,0000*57
$GPRMC,205650.000,A,3306.6989,S,06418.0791,W,1.62,82.19,021218,,,A*56
$GPGSA,A,3,20,26,21,16,10,27,29,15,,,,,2.1,1.2,1.7*3D
$GPGSV,3,2,09,10,49,357,32,27,23,229,27,29,21,077,13,15,13,104,32*7D
$GPRMC,205651.000,A,3306.6991,S,06418.0786,W,1.53,97.47,021218,,,A*55
$GPGSA,A,3,20,26,21,16,10,27,29,15,,,,,2.1,1.2,1.7*3D
$GPGGA,205653.000,3306.6994,S,06418.0773,W,1,07,1.5,426.0,M,21.4,M,,0000*5C
$GPRMC,205653.000,A,3306.6994,S,06418.0773,W,2.06,110.20,021218,,,A*64
$GPGSA,A,3,20,26,21,16,10,27,29,15,,,,,2.1,1.2,1.7*3D
$GPGGA,205655.000,3306.7001,S,06418.0765,W,1,08,1.2,426.0,M,21.4,M,,0000*51
$GPRMC,205655.000,A,3306.7001,S,06418.0765,W,1.61,139.74,021218,,,A*69
$GPGSA,A,3,20,26,21,16,10,27,29,15,,,,,2.1,1.2,1.7*3D
$GPGSV,3,2,09,10,49,357,34,27,23,229,30,29,21,077,27,15,13,104,32*7A
$GPRMC,205656.000,A,3306.7005,S,06418.0762,W,1.74,151.54,021218,,,A*61
$GPGSA,A,3,20,26,21,16,10,27,29,15,,,,,2.1,1.2,1.7*3D
$GPGGA,205658.000,3306.7020,S,06418.0760,W,1,08,1.2,426.5,M,21.4,M,,0000*5F
$GPRMC,205658.000,A,3306.7020,S,06418.0760,W,1.77,174.52,021218,,,A*68
$GPGSA,A,3,20,26,21,16,10,27,29,15,,,,,2.1,1.2,1.7*3D
$GPGGA,205700.000,3306.7028,S,06418.0761,W,1,08,1.2,426.9,M,21.4,M,,0000*56
$GPRMC,205700.000,A,3306.7028,S,06418.0761,W,0.91,181.00,021218,,,A*69
$GPGSA,A,3,20,26,21,16,10,27,29,15,,,,,2.1,1.2,1.7*3D
$GPGSV,3,2,09,10,49,357,40,27,23,229,37,29,21,077,36,15,13,104,37*7B
$GPRMC,205701.000,A,3306.7031,S,06418.0761,W,1.08,181.00,021218,,,A*61
$GPGSA,A,3,20,26,21,16,10,27,29,15,,,,,2.1,1.2,1.7*3D
$GPGGA,205703.000,3306.7037,S,06418.0762,W,1,08,1.2,426.9,M,21.4,M,,0000*58
$GPRMC,205703.000,A,3306.7037,S,06418.0762,W,1.09,181.00,021218,,,A*67
$GPGSA,A,3,20,26,21,16,10,27,29,15,,,,,2.1,1.2,1.7*3D
$GPGGA,205705.000,3306.7040,S,06418.0764,W,1,08,1.2,427.0,M,21.4,M,,0000*50
$GPRMC,205705.000,A,3306.7040,S,06418.0764,W,0.78,181.00,021218,,,A*60
$GPGSA,A,3,20,26,21,16,10,27,29,15,,,,,2.1,1.2,1.7*3D
$GPGSV,3,2,09,10,49,357,34,27,23,229,33,29,21,077,27,15,13,104,23*79
$GPRMC,205706.000,A,3306.7042,S,06418.0765,W,0.93,181.00,021218,,,A*65
$GPGSA,A,3,20,26,21,16,10,27,29,15,,,,,2.1,1.2,1.7*3D
$GPGGA,205708.000,3306.7048,S,06418.0768,W,1,08,1.2,427.0,M,21.4,M,,0000*59
$GPRMC,205708.000,A,3306.7048,S,06418.0768,W,1.59,191.99,021218,,,A*6A
$GPGSA,A,3,20,26,21,16,10,27,29,15,,,,,2.1,1.2,1.7*3D
$GPGGA,205710.000,3306.7055,S,06418.0773,W,1,08,1.2,426.7,M,21.4,M,,0000*50
$GPRMC,205710.000,A,3306.7055,S,06418.0773,W,1.09,207.29,021218,,,A*67
$GPGSA,A,3,20,26,21,16,10,27,29,15,,,,,2.1,1.2,1.7*3D
$GPGSV,3,2,09,10,49,357,33,27,23,229,31,29,21,077,30,15,13,104,26*7F
$GPRMC,205711.000,A,3306.7057,S,06418.0775,W,0.62,207.29,021218,,,A*6E
$GPGSA,A,3,20,26,21,16,10,27,29,15,,,,,2.1,1.2,1.7*3D
$GPGGA,205713.000,3306.7058,S,06418.0779,W,1,08,1.2,426.4,M,21.4,M,,0000*57
$GPRMC,205713.000,A,3306.7058,S,06418.0779,W,0.36,207.29,021218,,,A*6E
$GPGSA,A,3,20,26,21,16,10,27,29,15,,,,,2.1,1.2,1.7*3D
$GPGGA,205715.000,3306.7060,S,06418.0782,W,1,08,1.2,426.4,M,21.4,M,,0000*5E
$GPRMC,205715.000,A,3306.7060,S,06418.0782,W,0.80,207.29,021218,,,A*6A
$GPGSA,A,3,20,26,21,10,27,15,,,,,,,2.3,1.4,1.9*3B
$GPGSV,3,2,09,27,23,229,30,15,13,104,24,31,03,327,19,16,51,239,*7E
$GPRMC,205716.000,A,3306.7063,S,06418.0783,W,0.96,207.29,021218,,,A*6C
$GPGSA,A,3,20,21,16,10,27,15,,,,,,,2.3,1.4,1.9*38
$GPGGA,205718.000,3306.7068,S,06418.0785,W,1,08,1.2,426.3,M,21.4,M,,0000*5B
$GPRMC,205718.000,A,3306.7068,S,06418.0785,W,0.97,207.29,021218,,,A*6E
$GPGSA,A,3,20,26,21,16,10,27,29,15,,,,,2.1,1.2,1.7*3D
$GPGGA,205720.000,3306.7073,S,06418.0788,W,1,08,1.2,426.2,M,21.4,M,,0000*56
$GPRMC,205720.000,A,3306.7073,S,06418.0788,W,0.94,207.29,021218,,,A*61
$GPGSA,A,3,20,26,21,16,10,27,29,15,,,,,2.1,1.2,1.7*3D
$GPGSV,3,2,09,10,49,357,36,27,23,229,32,29,21,077,32,15,13,104,34*78
$GPRMC,205721.000,A,3306.7076,S,06418.0789,W,1.32,193.04,021218,,,A*68
$GPGSA,A,3,20,26,21,16,10,27,29,15,,,,,2.1,1.2,1.7*3D
$GPGGA,205723.000,3306.7084,S,06418.0791,W,1,08,1.2,425.5,M,21.4,M,,0000*51
$GPRMC,205723.000,A,3306.7084,S,06418.0791,W,1.82,199.41,021218,,,A*6E
$GPGSA,A,3,20,26,21,16,10,27,29,15,,,,,2.1,1.2,1.7*3D
$GPGGA,205725.000,3306.7094,S,06418.0798,W,1,08,1.2,425.4,M,21.4,M,,0000*5E
$GPRMC,205725.000,A,3306.7094,S,06418.0798,W,2.46,207.19,021218,,,A*62
$GPGSA,A,3,20,26,21,16,10,27,29,15,,,,,2.1,1.2,1.7*3D
$GPGSV,3,2,09,10,49,357,35,27,23,229,31,29,21,077,28,15,13,104,35*72
$GPRMC,205726.000,A,3306.7100,S,06418.0802,W,2.04,205.35,021218,,,A*6B
$GPGSA,A,3,20,26,21,16,10,27,29,15,,,,,2.1,1.2,1.7*3D
$GPGGA,205728.000,3306.7109,S,06418.0808,W,1,08,1.2,425.3,M,21.4,M,,0000*57
$GPRMC,205728.000,A,3306.7109,S,06418.0808,W,1.48,207.75,021218,,,A*6B
$GPGSA,A,3,20,26,21,16,10,27,29,15,,,,,2.1,1.2,1.7*3D
$GPGGA,205730.000,3306.7119,S,06418.0809,W,1,08,1.3,425.4,M,21.4,M,,0000*58
$GPRMC,205730.000,A,3306.7119,S,06418.0809,W,2.17,178.22,021218,,,A*62
$GPGSA,A,3,20,26,21,16,10,27,29,15,,,,,2.1,1.3,1.7*3C
$GPGSV,3,2,09,10,49,357,36,27,23,229,34,29,21,077,42,15,13,104,31*7C
$GPRMC,205731.000,A,3306.7121,S,06418.0804,W,2.01,148.63,021218,,,A*64
$GPGSA,A,3,20,26,21,16,10,27,29,15,,,,,2.1,1.3,1.7*3C
$GPGGA,205733.000,3306.7126,S,06418.0793,W,1,08,1.3,424.7,M,21.4,M,,0000*59
$GPRMC,205733.000,A,3306.7126,S,06418.0793,W,2.02,124.35,021218,,,A*6A
$GPGSA,A,3,20,26,21,16,10,27,29,15,,,,,2.1,1.3,1.7*3C
$GPGGA,205735.000,3306.7132,S,06418.0779,W,1,08,1.3,424.5,M,21.4,M,,0000*5C
$GPRMC,205735.000,A,3306.7132,S,06418.0779,W,2.00,122.54,021218,,,A*6E
$GPGSA,A,3,20,26,21,16,10,27,29,15,,,,,2.1,1.3,1.7*3C
$GPGSV,3,2,09,10,49,357,33,27,23,229,28,29,21,077,38,15,13,104,36*7E
$GPRMC,205736.000,A,3306.7135,S,06418.0772,W,2.14,114.03,021218,,,A*63
$GPGSA,A,3,20,26,21,16,10,27,29,15,,,,,2.1,1.3,1.7*3C
$GPGGA,205738.000,3306.7133,S,06418.0758,W,1,08,1.3,424.5,M,21.4,M,,0000*53
$GPRMC,205738.000,A,3306.7133,S,06418.0758,W,2.20,75.09,021218,,,A*58
$GPGSA,A,3,20,26,21,16,10,27,29,15,,,,,2.1,1.3,1.7*3C
$GPGGA,205740.000,3306.7126,S,06418.0749,W,1,08,1.3,424.6,M,21.4,M,,0000*5B
$GPRMC,205740.000,A,3306.7126,S,06418.0749,W,1.93,49.31,021218,,,A*5C
$GPGSA,A,3,20,26,21,16,10,27,29,15,,,,,2.1,1.3,1.7*3C
$GPGSV,3,2,09,10,49,357,33,27,23,229,19,29,21,077,32,15,13,104,25*74
$GPRMC,205741.000,A,3306.7121,S,06418.0746,W,2.03,37.59,021218,,,A*58
$GPGSA,A,3,20,26,21,16,10,27,29,15,,,,,2.1,1.3,1.7*3C
$GPGGA,205743.000,3306.7112,S,06418.0739,W,1,08,1.3,424.6,M,21.4,M,,0000*58
$GPRMC,205743.000,A,3306.7112,S,06418.0739,W,1.95,33.38,021218,,,A*5D
$GPGSA,A,3,20,26,21,16,10,27,29,15,,,,,2.1,1.3,1.7*3C
$GPGGA,205745.000,3306.7101,S,06418.0733,W,1,08,1.3,424.7,M,21.4,M,,0000*57
$GPRMC,205745.000,A,3306.7101,S,06418.0733,W,2.58,15.76,021218,,,A*5F
$GPGSA,A,3,20,26,21,16,10,27,29,15,,,,,2.1,1.3,1.7*3C
$GPGSV,3,2,09,10,49,357,39,27,23,229,19,29,21,077,37,15,13,104,33*7C
$GPRMC,205746.000,A,3306.7095,S,06418.0733,W,1.86,8.81,021218,,,A*64
$GPGSA,A,3,20,26,21,16,10,27,29,15,,,,,2.1,1.3,1.7*3C
$GPGGA,205748.000,3306.7088,S,06418.0732,W,1,08,1.3,425.1,M,21.4,M,,0000*5C
$GPRMC,205748.000,A,3306.7088,S,06418.0732,W,0.78,8.81,021218,,,A*67
$GPGSA,A,3,20,26,21,16,10,27,29,15,,,,,2.1,1.3,1.7*3C
$GPGGA,205750.000,3306.7081,S,06418.0732,W,1,08,1.3,425.4,M,21.4,M,,0000*59
$GPRMC,205750.000,A,3306.7081,S,06418.0732,W,1.35,354.96,021218,,,A*63
$GPGSA,A,3,20,26,21,16,10,27,29,15,,,,,2.1,1.3,1.7*3C
$GPGSV,3,2,09,10,49,357,38,27,23,229,30,29,21,077,35,15,13,104,35*72
$GPRMC,205751.000,A,3306.7078,S,06418.0734,W,1.12,354.96,021218,,,A*67
$GPGSA,A,3,20,26,21,16,10,27,29,15,,,,,2.1,1.3,1.7*3C
$GPGGA,205753.000,3306.7073,S,06418.0732,W,1,08,1.3,425.8,M,21.4,M,,0000*5B
$GPRMC,205753.000,A,3306.7073,S,06418.0732,W,0.85,354.96,021218,,,A*67
$GPGSA,A,3,20,26,21,16,10,27,29,15,,,,,2.1,1.3,1.7*3C
$GPGGA,205755.000,3306.7069,S,06418.0728,W,1,08,1.3,426.1,M,21.4,M,,0000*57
$GPRMC,205755.000,A,3306.7069,S,06418.0728,W,1.07,354.96,021218,,,A*6A
$GPGSA,A,3,20,26,21,16,10,27,29,15,,,,,2.1,1.3,1.7*3C
$GPGSV,3,2,09,10,49,357,38,27,23,229,28,29,21,077,40,15,13,104,36*7A
$GPRMC,205756.000,A,3306.7068,S,06418.0726,W,0.71,354.96,021218,,,A*66
$GPGSA,A,3,20,26,21,16,10,27,29,15,,,,,2.1,1.3,1.7*3C
$GPGGA,205758.000,3306.7065,S,06418.0723,W,1,08,1.3,426.5,M,21.4,M,,0000*59
$GPRMC,205758.000,A,3306.7065,S,06418.0723,W,0.75,354.96,021218,,,A*64
$GPGSA,A,3,20,26,21,16,10,27,29,15,,,,,2.1,1.3,1.7*3C
$GPGGA,205800.000,3306.7063,S,06418.0720,W,1,08,1.3,426.8,M,21.4,M,,0000*53
$GPRMC,205800.000,A,3306.7063,S,06418.0720,W,0.78,354.96,021218,,,A*6E
$GPGSA,A,3,20,26,21,16,10,27,29,15,,,,,2.1,1.3,1.7*3C
$GPGSV,3,2,09,10,49,357,31,27,23,229,18,29,21,077,32,15,13,104,27*75
$GPRMC,205801.000,A,3306.7061,S,06418.0719,W,0.74,354.96,021218,,,A*6B
$GPGSA,A,3,20,26,21,16,10,27,29,15,,,,,2.1,1.3,1.7*3C
$GPGGA,205803.000,3306.7057,S,06418.0716,W,1,08,1.3,427.2,M,21.4,M,,0000*59
$GPRMC,205803.000,A,3306.7057,S,06418.0716,W,0.82,354.96,021218,,,A*6A
$GPGSA,A,3,20,26,21,16,10,27,29,15,,,,,2.1,1.3,1.7*3C
$GPGGA,205805.000,3306.7051,S,06418.0713,W,1,08,1.3,427.3,M,21.4,M,,0000*5D
$GPRMC,205805.000,A,3306.7051,S,06418.0713,W,1.48,17.10,021218,,,A*52
$GPGSA,A,3,20,26,21,16,10,27,29,15,,,,,2.1,1.3,1.7*3C
$GPGSV,3,2,09,10,49,357,33,27,23,229,23,29,21,077,32,15,13,104,28*70
$GPRMC,205806.000,A,3306.7047,S,06418.0710,W,1.84,26.29,021218,,,A*5D
$GPGSA,A,3,20,26,21,16,10,27,29,15,,,,,2.1,1.3,1.7*3C
$GPGGA,205808.000,3306.7038,S,06418.0703,W,1,08,1.3,427.4,M,21.4,M,,0000*59
$GPRMC,205808.000,A,3306.7038,S,06418.0703,W,1.57,33.58,021218,,,A*55
$GPGSA,A,3,20,26,21,16,10,27,29,15,,,,,2.1,1.3,1.7*3C
$GPGGA,205810.000,3306.7033,S,06418.0696,W,1,08,1.3,427.1,M,21.4,M,,0000*53
$GPRMC,205810.000,A,3306.7033,S,06418.0696,W,1.59,66.41,021218,,,A*5C
$GPGSA,A,3,20,26,21,16,10,27,29,15,,,,,2.1,1.3,1.7*3C
$GPGSV,3,2,09,10,49,357,41,27,23,229,34,29,21,077,39,15,13,104,36*77
$GPRMC,205811.000,A,3306.7034,S,06418.0691,W,1.43,99.28,021218,,,A*59
$GPGSA,A,3,20,26,21,16,10,27,29,15,,,,,2.1,1.3,1.7*3C
$GPGGA,205813.000,3306.7040,S,06418.0686,W,1,08,1.3,427.2,M,21.4,M,,0000*56
$GPRMC,205813.000,A,3306.7040,S,06418.0686,W,1.68,153.97,021218,,,A*64
$GPGSA,A,3,20,26,21,16,10,27,29,15,,,,,2.1,1.3,1.7*3C
$GPGGA,205815.000,3306.7050,S,06418.0684,W,1,08,1.3,427.2,M,21.4,M,,0000*53
$GPRMC,205815.000,A,3306.7050,S,06418.0684,W,1.75,166.67,021218,,,A*64
$GPGSA,A,3,20,26,21,16,10,27,29,15,,,,,2.1,1.3,1.7*3C
$GPGSV,3,2,09,10,49,357,34,27,23,229,28,29,21,077,39,15,13,104,36*78
$GPRMC,205816.000,A,3306.7055,S,06418.0683,W,1.88,167.67,021218,,,A*66
$GPGSA,A,3,20,26,21,16,10,27,29,15,,,,,2.1,1.3,1.7*3C
$GPGGA,205818.000,3306.7065,S,06418.0682,W,1,08,1.3,426.9,M,21.4,M,,0000*54
$GPRMC,205818.000,A,3306.7065,S,06418.0682,W,1.61,169.91,021218,,,A*6A
$GPGSA,A,3,20,26,21,16,10,27,29,15,,,,,2.1,1.3,1.7*3C
$GPGGA,205820.000,3306.7073,S,06418.0680,W,1,08,1.3,426.7,M,21.4,M,,0000*54
$GPRMC,205820.000,A,3306.7073,S,06418.0680,W,1.94,169.38,021218,,,A*6D
$GPGSA,A,3,20,26,21,16,10,27,29,15,,,,,2.1,1.3,1.7*3C
$GPGSV,3,2,09,10,49,357,34,27,23,229,27,29,21,077,28,15,13,104,26*76
$GPRMC,205821.000,A,3306.7079,S,06418.0679,W,2.07,169.25,021218,,,A*65
$GPGSA,A,3,20,26,21,16,10,27,29,15,,,,,2.1,1.3,1.7*3C
$GPGGA,205823.000,3306.7088,S,06418.0678,W,1,08,1.3,426.6,M,21.4,M,,0000*55
$GPRMC,205823.000,A,3306.7088,S,06418.0678,W,1.53,178.81,021218,,,A*64
$GPGSA,A,3,20,26,21,16,10,27,29,15,,,,,2.1,1.3,1.7*3C
$GPGGA,205825.000,3306.7096,S,06418.0679,W,1,08,1.3,426.3,M,21.4,M,,0000*58
$GPRMC,205825.000,A,3306.7096,S,06418.0679,W,1.45,178.99,021218,,,A*62
$GPGSA,A,3,20,26,21,16,10,27,29,15,,,,,2.1,1.3,1.7*3C
$GPGSV,3,2,09,10,49,357,34,27,23,229,30,29,21,077,32,15,13,104,35*79
$GPRMC,205826.000,A,3306.7100,S,06418.0678,W,1.30,178.51,021218,,,A*68
$GPGSA,A,3,20,26,21,16,10,27,29,15,,,,,2.1,1.3,1.7*3C
$GPGGA,205828.000,3306.7107,S,06418.0677,W,1,08,1.3,425.7,M,21.4,M,,0000*55
$GPRMC,205828.000,A,3306.7107,S,06418.0677,W,1.25,169.93,021218,,,A*64
$GPGSA,A,3,20,26,21,16,10,27,29,15,,,,,2.1,1.3,1.7*3C
$GPGGA,205830.000,3306.7113,S,06418.0676,W,1,07,1.5,425.4,M,21.4,M,,0000*52
$GPRMC,205830.000,A,3306.7113,S,06418.0676,W,1.05,169.93,021218,,,A*6B
$GPGSA,A,3,20,26,21,16,10,27,29,15,,,,,2.1,1.3,1.7*3C
$GPGSV,3,2,09,10,49,357,29,27,23,229,34,29,21,077,32,15,13,104,33*77
$GPRMC,205831.000,A,3306.7118,S,06418.0677,W,2.33,185.53,021218,,,A*68
$GPGSA,A,3,20,26,21,16,10,27,29,15,,,,,2.1,1.3,1.7*3C
$GPGGA,205833.000,3306.7132,S,06418.0680,W,1,08,1.3,424.7,M,21.4,M,,0000*50
$GPRMC,205833.000,A,3306.7132,S,06418.0680,W,2.57,188.04,021218,,,A*67
$GPGSA,A,3,20,26,21,16,10,27,29,15,,,,,2.1,1.3,1.7*3C
$GPGGA,205835.000,3306.7145,S,06418.0680,W,1,08,1.3,424.8,M,21.4,M,,0000*59
$GPRMC,205835.000,A,3306.7145,S,06418.0680,W,2.26,181.49,021218,,,A*67
$GPGSA,A,3,20,26,21,16,10,27,29,15,,,,,2.1,1.3,1.7*3C
$GPGSV,3,2,09,10,49,357,33,27,23,229,28,29,21,077,36,15,13,104,32*74
$GPRMC,205836.000,A,3306.7151,S,06418.0680,W,2.26,177.74,021218,,,A*66
$GPGSA,A,3,20,26,21,16,10,27,29,15,,,,,2.1,1.3,1.7*3C
$GPGGA,205838.000,3306.7164,S,06418.0679,W,1,08,1.3,424.7,M,21.4,M,,0000*5E
$GPRMC,205838.000,A,3306.7164,S,06418.0679,W,2.40,172.14,021218,,,A*6B
$GPGSA,A,3,20,26,21,16,10,27,29,15,,,,,2.1,1.3,1.7*3C
$GPGGA,205840.000,3306.7176,S,06418.0674,W,1,08,1.3,424.7,M,21.4,M,,0000*5F
$GPRMC,205840.000,A,3306.7176,S,06418.0674,W,2.42,155.27,021218,,,A*6D
$GPGSA,A,3,20,26,21,16,10,27,29,15,,,,,2.1,1.3,1.7*3C
$GPGSV,3,2,09,10,49,357,33,27,23,229,23,29,21,077,32,15,13,104,31*78
$GPRMC,205841.000,A,3306.7181,S,06418.0670,W,2.10,148.57,021218,,,A*6C
$GPGSA,A,3,20,26,21,16,10,27,29,15,,,,,2.1,1.3,1.7*3C
$GPGGA,205843.000,3306.7192,S,06418.0663,W,1,08,1.3,424.6,M,21.4,M,,0000*51
$GPRMC,205843.000,A,3306.7192,S,06418.0663,W,2.16,153.49,021218,,,A*6D
$GPGSA,A,3,20,26,21,16,10,27,29,15,,,,,2.1,1.3,1.7*3C
$GPGGA,205845.000,3306.7203,S,06418.0657,W,1,08,1.3,424.7,M,21.4,M,,0000*5A
$GPRMC,205845.000,A,3306.7203,S,06418.0657,W,2.30,156.08,021218,,,A*63
$GPGSA,A,3,20,26,21,16,10,27,29,15,,,,,2.1,1.3,1.7*3C
$GPGSV,3,2,09,10,49,357,32,27,23,229,21,29,21,077,27,15,13,104,27*78
$GPRMC,205846.000,A,3306.7209,S,06418.0653,W,2.55,152.85,021218,,,A*6C
$GPGSA,A,3,20,26,21,16,10,27,29,15,,,,,2.1,1.3,1.7*3C
$GPGGA,205848.000,3306.7218,S,06418.0643,W,1,08,1.3,424.8,M,21.4,M,,0000*57
$GPRMC,205848.000,A,3306.7218,S,06418.0643,W,2.43,127.93,021218,,,A*61
$GPGSA,A,3,20,26,21,16,10,27,29,15,,,,,2.1,1.3,1.7*3C
$GPGGA,205850.000,3306.7221,S,06418.0629,W,1,08,1.3,424.6,M,21.4,M,,0000*56
$GPRMC,205850.000,A,3306.7221,S,06418.0629,W,2.23,98.16,021218,,,A*50
$GPGSA,A,3,20,26,21,16,10,27,29,15,,,,,2.1,1.3,1.7*3C
$GPGSV,3,2,09,10,49,357,33,27,23,229,27,29,21,077,35,15,13,104,27*7C
$GPRMC,205851.000,A,3306.7219,S,06418.0622,W,2.13,81.83,021218,,,A*56
$GPGSA,A,3,20,26,21,16,10,27,29,15,,,,,2.1,1.3,1.7*3C
$GPGGA,205853.000,3306.7214,S,06418.0609,W,1,07,1.6,424.9,M,21.4,M,,0000*54
$GPRMC,205853.000,A,3306.7214,S,06418.0609,W,2.27,65.26,021218,,,A*52
$GPGSA,A,3,20,26,21,16,10,27,29,15,,,,,2.1,1.3,1.7*3C
$GPGGA,205855.000,3306.7205,S,06418.0598,W,1,08,1.3,425.1,M,21.4,M,,0000*5A
$GPRMC,205855.000,A,3306.7205,S,06418.0598,W,2.10,48.72,021218,,,A*55
$GPGSA,A,3,20,26,21,16,10,27,29,15,,,,,2.1,1.3,1.7*3C
$GPGSV,3,2,09,10,49,357,32,27,23,229,18,29,21,077,28,15,13,104,26*7C
$GPRMC,205856.000,A,3306.7200,S,06418.0594,W,2.19,35.48,021218,,,A*55
$GPGSA,A,3,20,26,21,16,10,27,29,15,,,,,2.1,1.3,1.7*3C
$GPGGA,205858.000,3306.7189,S,06418.0590,W,1,08,1.3,425.2,M,21.4,M,,0000*5B
$GPRMC,205858.000,A,3306.7189,S,06418.0590,W,1.90,23.48,021218,,,A*58
$GPGSA,A,3,20,26,21,16,10,27,29,15,,,,,2.1,1.3,1.7*3C
$GPGGA,205900.000,3306.7179,S,06418.0590,W,1,08,1.3,425.1,M,21.4,M,,0000*5B
$GPRMC,205900.000,A,3306.7179,S,06418.0590,W,1.79,5.68,021218,,,A*6A
$GPGSA,A,3,20,26,21,16,10,27,29,15,,,,,2.2,1.3,1.7*3F
$GPGSV,3,2,09,10,49,357,27,27,23,229,17,29,21,077,27,15,13,104,20*7E
$GPRMC,205901.000,A,3306.7174,S,06418.0590,W,1.68,2.60,021218,,,A*69
$GPGSA,A,3,20,21,16,10,27,29,15,,,,,,2.2,1.3,1.8*34
$GPGGA,205903.000,3306.7164,S,06418.0592,W,1,08,1.3,425.1,M,21.4,M,,0000*56
$GPRMC,205903.000,A,3306.7164,S,06418.0592,W,1.85,357.99,021218,,,A*6E
$GPGSA,A,3,20,26,21,16,10,27,29,15,,,,,2.2,1.3,1.7*3F
$GPGGA,205905.000,3306.7155,S,06418.0597,W,1,08,1.3,425.2,M,21.4,M,,0000*54
$GPRMC,205905.000,A,3306.7155,S,06418.0597,W,2.03,344.11,021218,,,A*60
$GPGSA,A,3,20,26,21,16,10,27,29,15,,,,,2.2,1.3,1.7*3F
$GPGSV,3,2,09,10,49,357,33,27,23,229,27,29,21,077,29,15,13,104,34*73
$GPRMC,205906.000,A,3306.7149,S,06418.0599,W,2.37,345.19,021218,,,A*6E
$GPGSA,A,3,20,26,21,16,10,27,29,15,,,,,2.2,1.3,1.7*3F
$GPGGA,205908.000,3306.7135,S,06418.0604,W,1,08,1.3,425.2,M,21.4,M,,0000*56
$GPRMC,205908.000,A,3306.7135,S,06418.0604,W,2.34,343.75,021218,,,A*63
$GPGSA,A,3,20,26,21,16,10,27,29,15,,,,,2.2,1.3,1.7*3F
$GPGGA,205910.000,3306.7125,S,06418.0610,W,1,08,1.3,425.2,M,21.4,M,,0000*5B
$GPRMC,205910.000,A,3306.7125,S,06418.0610,W,2.01,338.20,021218,,,A*64
$GPGSA,A,3,20,26,21,16,10,27,29,15,,,,,2.2,1.3,1.7*3F
$GPGSV,3,2,09,10,49,357,29,27,23,229,23,29,21,077,21,15,13,104,23*72
$GPRMC,205911.000,A,3306.7120,S,06418.0614,W,2.06,333.63,021218,,,A*6F
$GPGSA,A,3,20,26,21,16,10,27,29,15,,,,,2.2,1.3,1.7*3F
$GPGGA,205913.000,3306.7109,S,06418.0621,W,1,08,1.3,425.5,M,21.4,M,,0000*53
$GPRMC,205913.000,A,3306.7109,S,06418.0621,W,2.23,331.35,021218,,,A*66
$GPGSA,A,3,20,26,21,16,10,27,29,15,,,,,2.2,1.3,1.7*3F
$GPGGA,205915.000,3306.7100,S,06418.0625,W,1,08,1.3,425.8,M,21.4,M,,0000*55
$GPRMC,205915.000,A,3306.7100,S,06418.0625,W,1.83,333.08,021218,,,A*68
$GPGSA,A,3,20,26,21,16,10,27,29,15,,,,,2.2,1.3,1.7*3F
$GPGSV,3,2,09,10,49,357,28,27,23,229,27,29,21,077,24,15,13,104,23*72
$GPRMC,205916.000,A,3306.7096,S,06418.0628,W,1.80,331.93,021218,,,A*6B
$GPGSA,A,3,20,26,21,16,10,27,29,15,,,,,2.2,1.3,1.7*3F
$GPGGA,205918.000,3306.7087,S,06418.0633,W,1,08,1.3,426.0,M,21.4,M,,0000*5A
$GPRMC,205918.000,A,3306.7087,S,06418.0633,W,1.77,332.28,021218,,,A*64
$GPGSA,A,3,20,26,21,16,10,29,15,,,,,,2.9,1.6,2.4*34
$GPGGA,205920.000,3306.7079,S,06418.0639,W,1,07,1.6,426.0,M,21.4,M,,0000*50
$GPRMC,205920.000,A,3306.7079,S,06418.0639,W,1.72,331.77,021218,,,A*68
$GPGSA,A,3,20,26,21,16,10,29,15,,,,,,2.9,1.6,2.4*34
$GPGSV,3,2,09,10,49,357,28,29,21,077,23,15,13,104,22,27,23,229,18*78
$GPRMC,205921.000,A,3306.7075,S,06418.0641,W,1.66,334.14,021218,,,A*6F
$GPGSA,A,3,20,26,21,16,10,29,15,,,,,,2.9,1.6,2.4*34
$GPGGA,205923.000,3306.7065,S,06418.0648,W,1,07,1.6,426.3,M,21.4,M,,0000*5B
$GPRMC,205923.000,A,3306.7065,S,06418.0648,W,1.95,333.60,021218,,,A*6D
$GPGSA,A,3,20,26,21,16,10,29,15,,,,,,2.9,1.6,2.4*34
$GPGGA,205925.000,3306.7056,S,06418.0649,W,1,07,1.6,426.3,M,21.4,M,,0000*5C
$GPRMC,205925.000,A,3306.7056,S,06418.0649,W,1.14,342.80,021218,,,A*6B
$GPGSA,A,3,20,26,21,16,10,29,15,,,,,,2.9,1.6,2.4*34
$GPGSV,3,2,09,10,49,357,35,29,21,077,35,15,13,104,32,27,23,229,12*78
$GPRMC,205926.000,A,3306.7055,S,06418.0645,W,1.38,23.97,021218,,,A*5B
$GPGSA,A,3,20,26,21,16,10,29,15,,,,,,2.9,1.6,2.4*34
$GPGGA,205928.000,3306.7050,S,06418.0639,W,1,07,1.6,426.5,M,21.4,M,,0000*56
$GPRMC,205928.000,A,3306.7050,S,06418.0639,W,1.19,37.61,021218,,,A*54
$GPGSA,A,3,20,26,21,16,10,29,15,,,,,,2.9,1.6,2.4*34
$GPGGA,205930.000,3306.7043,S,06418.0644,W,1,07,1.6,426.7,M,21.4,M,,0000*55
$GPRMC,205930.000,A,3306.7043,S,06418.0644,W,1.54,13.19,021218,,,A*55
$GPGSA,A,3,20,26,21,16,10,29,15,,,,,,2.9,1.6,2.4*34
$GPGSV,3,2,09,10,49,357,27,29,21,077,25,15,13,104,26,27,23,229,04*78
$GPRMC,205931.000,A,3306.7039,S,06418.0646,W,1.68,2.11,021218,,,A*6C
$GPGSA,A,3,20,26,21,16,10,29,15,,,,,,2.9,1.6,2.4*34
$GPGGA,205933.000,3306.7032,S,06418.0648,W,1,07,1.6,427.0,M,21.4,M,,0000*5A
$GPRMC,205933.000,A,3306.7032,S,06418.0648,W,1.19,357.49,021218,,,A*63
$GPGSA,A,3,20,26,21,16,10,29,15,,,,,,2.9,1.6,2.4*34
$GPGGA,205935.000,3306.7030,S,06418.0638,W,1,08,1.3,427.2,M,21.4,M,,0000*51
$GPRMC,205935.000,A,3306.7030,S,06418.0638,W,1.32,15.98,021218,,,A*50
$GPGSA,A,3,20,26,21,16,10,27,29,15,,,,,2.2,1.3,1.8*30
$GPGSV,3,2,09,10,51,357,36,27,24,228,31,29,20,076,33,15,13,105,34*74
$GPRMC,205936.000,A,3306.7031,S,06418.0629,W,1.69,59.38,021218,,,A*5E
$GPGSA,A,3,20,26,21,16,10,27,29,15,,,,,2.2,1.3,1.8*30
$GPGGA,205938.000,3306.7034,S,06418.0617,W,1,08,1.3,427.5,M,21.4,M,,0000*52
$GPRMC,205938.000,A,3306.7034,S,06418.0617,W,1.94,112.74,021218,,,A*6C
$GPGSA,A,3,20,26,21,16,10,27,29,15,,,,,2.2,1.3,1.8*30
$GPGGA,205940.000,3306.7042,S,06418.0607,W,1,08,1.3,426.4,M,21.4,M,,0000*5D
$GPRMC,205940.000,A,3306.7042,S,06418.0607,W,1.90,130.91,021218,,,A*6C
$GPGSA,A,3,20,26,21,16,10,27,29,15,,,,,2.2,1.3,1.8*30
$GPGSV,3,2,09,10,51,357,35,27,24,228,31,29,20,076,32,15,13,105,38*7A
$GPRMC,205941.000,A,3306.7047,S,06418.0603,W,2.38,127.87,021218,,,A*6C
$GPGSA,A,3,20,26,21,16,10,27,29,15,,,,,2.2,1.3,1.8*30
$GPGGA,205943.000,3306.7056,S,06418.0591,W,1,08,1.3,426.3,M,21.4,M,,0000*50
$GPRMC,205943.000,A,3306.7056,S,06418.0591,W,2.07,137.33,021218,,,A*64
$GPGSA,A,3,20,26,21,16,10,27,29,15,,,,,2.2,1.3,1.8*30
$GPGGA,205945.000,3306.7067,S,06418.0581,W,1,08,1.3,426.4,M,21.4,M,,0000*52
$GPRMC,205945.000,A,3306.7067,S,06418.0581,W,2.21,141.43,021218,,,A*63
$GPGSA,A,3,20,26,21,16,10,27,29,15,,,,,2.2,1.3,1.8*30
$GPGSV,3,2,09,10,51,357,36,27,24,228,32,29,20,076,31,15,13,105,28*78
$GPRMC,205946.000,A,3306.7072,S,06418.0575,W,2.16,130.78,021218,,,A*65
$GPGSA,A,3,20,26,21,16,10,27,29,15,,,,,2.2,1.3,1.8*30
$GPGGA,205948.000,3306.7079,S,06418.0562,W,1,08,1.3,426.4,M,21.4,M,,0000*5D
$GPRMC,205948.000,A,3306.7079,S,06418.0562,W,2.61,125.16,021218,,,A*6A
$GPGSA,A,3,20,26,21,16,10,27,29,15,,,,,2.2,1.3,1.8*30
$GPGGA,205950.000,3306.7089,S,06418.0550,W,1,08,1.3,426.2,M,21.4,M,,0000*5C
$GPRMC,205950.000,A,3306.7089,S,06418.0550,W,2.60,131.79,021218,,,A*60
$GPGSA,A,3,20,26,21,16,10,27,29,15,,,,,2.2,1.3,1.8*30
$GPGSV,3,2,09,10,51,357,28,27,24,228,34,29,20,076,31,15,13,105,28*71
$GPRMC,205951.000,A,3306.7093,S,06418.0545,W,2.10,133.50,021218,,,A*60
$GPGSA,A,3,20,26,21,16,10,27,29,15,,,,,2.2,1.3,1.8*30
$GPGGA,205953.000,3306.7100,S,06418.0535,W,1,08,1.3,425.9,M,21.4,M,,0000*54
$GPRMC,205953.000,A,3306.7100,S,06418.0535,W,2.40,129.39,021218,,,A*6F
$GPGSA,A,3,20,26,21,16,10,27,29,15,,,,,2.2,1.3,1.8*30
$GPGGA,205955.000,3306.7109,S,06418.0522,W,1,08,1.3,425.7,M,21.4,M,,0000*53
$GPRMC,205955.000,A,3306.7109,S,06418.0522,W,2.55,126.37,021218,,,A*63
$GPGSA,A,3,20,26,21,16,10,27,29,15,,,,,2.2,1.3,1.8*30
$GPGSV,3,2,09,10,51,357,32,27,24,228,34,29,20,076,31,15,13,105,30*73
$GPRMC,205956.000,A,3306.7113,S,06418.0515,W,2.48,125.93,021218,,,A*6E
$GPGSA,A,3,20,26,21,16,10,27,29,15,,,,,2.2,1.3,1.8*30
$GPGGA,205958.000,3306.7122,S,06418.0502,W,1,08,1.3,425.6,M,21.4,M,,0000*54
$GPRMC,205958.000,A,3306.7122,S,06418.0502,W,2.52,126.64,021218,,,A*64
$GPGSA,A,3,20,26,21,16,10,27,29,15,,,,,2.2,1.3,1.8*30
$GPGGA,210000.000,3306.7130,S,06418.0489,W,1,08,1.3,425.4,M,21.4,M,,0000*57
$GPRMC,210000.000,A,3306.7130,S,06418.0489,W,2.47,125.30,021218,,,A*63
$GPGSA,A,3,20,26,21,16,10,27,29,15,,,,,2.2,1.3,1.8*30
$GPGSV,3,2,09,10,51,357,29,27,24,228,30,29,20,076,31,15,13,105,30*7D
$GPRMC,210001.000,A,3306.7132,S,06418.0482,W,2.38,118.45,021218,,,A*6F
$GPGSA,A,3,20,26,21,16,10,27,29,15,,,,,2.2,1.3,1.8*30
$GPGGA,210003.000,3306.7128,S,06418.0469,W,1,08,1.3,425.0,M,21.4,M,,0000*57
$GPRMC,210003.000,A,3306.7128,S,06418.0469,W,1.94,78.59,021218,,,A*5C
$GPGSA,A,3,20,26,21,16,10,27,29,15,,,,,2.2,1.3,1.8*30
$GPGGA,210005.000,3306.7120,S,06418.0460,W,1,08,1.3,424.9,M,21.4,M,,0000*58
$GPRMC,210005.000,A,3306.7120,S,06418.0460,W,2.21,53.44,021218,,,A*53
$GPGSA,A,3,20,26,21,16,10,27,29,15,,,,,2.2,1.3,1.8*30
$GPGSV,3,2,09,10,51,357,31,27,24,228,21,29,20,076,32,15,13,105,26*70
$GPRMC,210006.000,A,3306.7115,S,06418.0455,W,2.33,41.56,021218,,,A*53
$GPGSA,A,3,20,26,21,16,10,27,29,15,,,,,2.2,1.3,1.8*30
$GPGGA,210008.000,3306.7103,S,06418.0451,W,1,08,1.3,424.9,M,21.4,M,,0000*56
$GPRMC,210008.000,A,3306.7103,S,06418.0451,W,2.38,26.68,021218,,,A*59
$GPGSA,A,3,20,26,21,16,10,27,29,15,,,,,2.2,1.3,1.8*30
$GPGGA,210010.000,3306.7091,S,06418.0451,W,1,08,1.3,424.9,M,21.4,M,,0000*55
$GPRMC,210010.000,A,3306.7091,S,06418.0451,W,1.77,16.34,021218,,,A*58
$GPGSA,A,3,20,26,21,16,10,27,29,15,,,,,2.2,1.3,1.8*30
$GPGSV,3,2,09,10,51,357,31,27,24,228,19,29,20,076,27,15,13,105,29*70
$GPRMC,210011.000,A,3306.7086,S,06418.0453,W,2.04,3.79,021218,,,A*67
$GPGSA,A,3,20,26,21,16,10,27,29,15,,,,,2.2,1.3,1.8*30
$GPGGA,210013.000,3306.7075,S,06418.0461,W,1,08,1.3,425.0,M,21.4,M,,0000*57
$GPRMC,210013.000,A,3306.7075,S,06418.0461,W,2.32,341.13,021218,,,A*64
$GPGSA,A,3,20,26,21,16,10,27,29,15,,,,,2.2,1.3,1.8*30
$GPGGA,210015.000,3306.7067,S,06418.0469,W,1,08,1.3,425.1,M,21.4,M,,0000*5B
$GPRMC,210015.000,A,3306.7067,S,06418.0469,W,1.99,325.61,021218,,,A*6C
$GPGSA,A,3,20,26,21,16,10,27,29,15,,,,,2.2,1.3,1.8*30
$GPGSV,3,2,09,10,51,357,32,27,24,228,25,29,20,076,28,15,13,105,17*7E
$GPRMC,210016.000,A,3306.7064,S,06418.0476,W,2.11,314.84,021218,,,A*68
$GPGSA,A,3,20,26,21,16,10,27,29,15,,,,,2.2,1.3,1.8*30
$GPGGA,210018.000,3306.7058,S,06418.0488,W,1,07,1.3,425.0,M,21.4,M,,0000*5B
$GPRMC,210018.000,A,3306.7058,S,06418.0488,W,1.98,303.85,021218,,,A*6D
$GPGSA,A,3,20,26,21,16,10,27,29,15,,,,,2.2,1.3,1.8*30
$GPGGA,210020.000,3306.7054,S,06418.0500,W,1,08,1.3,425.0,M,21.4,M,,0000*52
$GPRMC,210020.000,A,3306.7054,S,06418.0500,W,2.04,300.01,021218,,,A*62
$GPGSA,A,3,26,16,10,27,29,15,,,,,,,4.9,2.5,4.2*36
$GPGSV,3,2,09,29,20,076,26,15,13,105,17,20,73,052,,21,53,146,*7E
$GPRMC,210021.000,A,3306.7053,S,06418.0505,W,1.64,299.23,021218,,,A*65
$GPGSA,A,3,26,21,16,10,27,29,15,,,,,,2.5,1.3,2.1*3F
$GPGGA,210023.000,3306.7052,S,06418.0509,W,1,08,1.3,425.1,M,21.4,M,,0000*5F
$GPRMC,210023.000,A,3306.7052,S,06418.0509,W,0.56,299.23,021218,,,A*6A
$GPGSA,A,3,20,26,21,16,10,27,29,15,,,,,2.2,1.3,1.8*30
$GPGGA,210025.000,3306.7051,S,06418.0510,W,1,08,1.3,425.1,M,21.4,M,,0000*52
$GPRMC,210025.000,A,3306.7051,S,06418.0510,W,0.41,299.23,021218,,,A*61
$GPGSA,A,3,20,26,21,16,10,27,29,15,,,,,2.2,1.3,1.8*30
$GPGSV,3,2,09,10,51,357,26,27,24,228,24,29,20,076,25,15,13,105,18*78
$GPRMC,210026.000,A,3306.7051,S,06418.0509,W,0.33,299.23,021218,,,A*6F
$GPGSA,A,3,20,26,21,16,10,27,29,15,,,,,2.2,1.3,1.8*30
$GPGGA,210028.000,3306.7050,S,06418.0507,W,1,08,1.3,425.0,M,21.4,M,,0000*59
$GPRMC,210028.000,A,3306.7050,S,06418.0507,W,0.56,299.23,021218,,,A*6D
$GPGSA,A,3,20,26,21,16,10,27,29,15,,,,,2.2,1.3,1.8*30
$GPGGA,210030.000,3306.7045,S,06418.0511,W,1,08,1.3,424.8,M,21.4,M,,0000*5A
$GPRMC,210030.000,A,3306.7045,S,06418.0511,W,0.91,299.23,021218,,,A*6C
$GPGSA,A,3,20,26,21,16,10,27,29,15,,,,,2.2,1.3,1.8*30
$GPGSV,3,2,09,10,51,357,28,27,24,228,24,29,20,076,28,15,13,105,25*75
$GPRMC,210031.000,A,3306.7041,S,06418.0518,W,1.76,299.81,021218,,,A*60
$GPGSA,A,3,20,26,21,16,10,27,29,15,,,,,2.2,1.3,1.8*30
$GPGGA,210033.000,3306.7037,S,06418.0531,W,1,08,1.3,424.9,M,21.4,M,,0000*5F
$GPRMC,210033.000,A,3306.7037,S,06418.0531,W,2.09,299.55,021218,,,A*6A
$GPGSA,A,3,20,26,21,16,10,27,29,15,,,,,2.2,1.3,1.8*30
$GPGGA,210035.000,3306.7032,S,06418.0546,W,1,08,1.3,425.0,M,21.4,M,,0000*54
$GPRMC,210035.000,A,3306.7032,S,06418.0546,W,2.54,294.69,021218,,,A*63
$GPGSA,A,3,20,26,21,16,10,27,29,15,,,,,2.2,1.3,1.8*30
$GPGSV,3,2,09,10,51,357,26,27,24,228,25,29,20,076,26,15,13,105,25*74
$GPRMC,210036.000,A,3306.7030,S,06418.0554,W,2.56,294.25,021218,,,A*6B
$GPGSA,A,3,20,26,21,16,10,27,29,15,,,,,2.2,1.3,1.8*30
$GPGGA,210038.000,3306.7024,S,06418.0569,W,1,08,1.3,425.2,M,21.4,M,,0000*51
$GPRMC,210038.000,A,3306.7024,S,06418.0569,W,2.61,295.90,021218,,,A*65
$GPGSA,A,3,20,26,21,16,10,27,29,15,,,,,2.2,1.3,1.8*30
$GPGGA,210040.000,3306.7017,S,06418.0583,W,1,08,1.3,425.4,M,21.4,M,,0000*5C
$GPRMC,210040.000,A,3306.7017,S,06418.0583,W,2.52,296.78,021218,,,A*6B
$GPGSA,A,3,20,26,21,16,10,27,29,15,,,,,2.2,1.3,1.8*30
$GPGSV,3,2,09,10,51,357,29,27,24,228,30,29,20,076,25,15,13,105,23*7A
$GPRMC,210041.000,A,3306.7015,S,06418.0592,W,2.16,293.65,021218,,,A*61
$GPGSA,A,3,20,26,21,16,10,27,29,15,,,,,2.2,1.3,1.8*30
$GPGGA,210043.000,3306.7013,S,06418.0607,W,1,08,1.3,425.1,M,21.4,M,,0000*51
$GPRMC,210043.000,A,3306.7013,S,06418.0607,W,1.94,284.44,021218,,,A*66
$GPGSA,A,3,20,26,21,16,10,27,29,15,,,,,2.2,1.3,1.8*30
$GPGGA,210045.000,3306.7010,S,06418.0618,W,1,08,1.3,425.0,M,21.4,M,,0000*5B
$GPRMC,210045.000,A,3306.7010,S,06418.0618,W,1.85,284.98,021218,,,A*6C
$GPGSA,A,3,20,26,21,16,10,27,29,15,,,,,2.2,1.3,1.8*30
$GPGSV,3,2,09,10,51,357,29,27,24,228,34,29,20,076,33,15,13,105,30*7B
$GPRMC,210046.000,A,3306.7009,S,06418.0625,W,1.98,286.83,021218,,,A*6D
$GPGSA,A,3,20,26,21,16,10,27,29,15,,,,,2.2,1.3,1.8*30
$GPGGA,210048.000,3306.7008,S,06418.0638,W,1,08,1.3,425.2,M,21.4,M,,0000*5F
$GPRMC,210048.000,A,3306.7008,S,06418.0638,W,1.86,283.89,021218,,,A*6E
$GPGSA,A,3,20,26,21,16,10,27,29,15,,,,,2.2,1.3,1.8*30
$GPGGA,210050.000,3306.7006,S,06418.0650,W,1,08,1.3,425.3,M,21.4,M,,0000*57
$GPRMC,210050.000,A,3306.7006,S,06418.0650,W,1.80,283.12,021218,,,A*63
$GPGSA,A,3,20,26,21,16,10,27,29,15,,,,,2.2,1.3,1.8*30
$GPGSV,3,2,09,10,51,357,15,27,24,228,21,29,20,076,16,15,13,105,19*7C
$GPRMC,210051.000,A,3306.7005,S,06418.0653,W,1.35,283.71,021218,,,A*69
$GPGSA,A,3,20,26,21,16,10,29,15,,,,,,2.9,1.6,2.4*34
$GPGGA,210053.000,3306.7006,S,06418.0656,W,1,07,1.6,425.3,M,21.4,M,,0000*58
$GPRMC,210053.000,A,3306.7006,S,06418.0656,W,0.40,283.71,021218,,,A*6E
$GPGSA,A,3,20,26,21,16,10,29,15,,,,,,2.9,1.6,2.4*34
$GPGGA,210055.000,3306.7008,S,06418.0656,W,1,07,1.6,425.2,M,21.4,M,,0000*51
$GPRMC,210055.000,A,3306.7008,S,06418.0656,W,0.42,283.71,021218,,,A*64
$GPGSA,A,3,20,26,21,16,10,29,15,,,,,,2.9,1.6,2.4*34
$GPGSV,3,2,09,10,51,357,14,29,20,076,29,15,13,105,23,27,24,228,15*7F
$GPRMC,210056.000,A,3306.7009,S,06418.0655,W,0.41,283.71,021218,,,A*66
$GPGSA,A,3,26,16,10,29,15,,,,,,,,3.8,2.0,3.2*37
$GPGGA,210058.000,3306.7011,S,06418.0656,W,1,06,1.8,425.1,M,21.4,M,,0000*58
$GPRMC,210058.000,A,3306.7011,S,06418.0656,W,0.49,283.71,021218,,,A*6A
$GPGSA,A,3,20,26,21,10,29,,,,,,,,4.5,2.4,3.8*31
